$PSRFTXTVersion GSW3.1.1HTC_3.1.00.07-C23P1.00 *6E
$PSRFTXTHTC V1.06 2005-OCT-05 (ENG30)*6B
$PSRFTXTTOW:  380682*3E
$PSRFTXTWK:   1402*4E
$PSRFTXTPOS:  4109873 1063790 4744354*02
$PSRFTXTCLK:  93075*09
$PSRFTXTCHNL: 12*5F
$PSRFTXTBaud rate: 9600  System clock: 0.000MHz*6C
$GPGGA,094457.164,,,,,0,00,,,M,0.0,M,,0000*5E
$GPGSA,A,1,,,,,,,,,,,,,,,*1E
$GPRMC,094457.164,V,,,,,,,231106,,,N*42
$GPGGA,094458.161,4822.1121,N,01430.7381,E,1,03,2.7,163.5,M,45.2,M,,0000*5E
$GPGSA,A,2,24,09,05,,,,,,,,,,2.9,2.7,1.0*36
$GPRMC,094458.161,A,4822.1121,N,01430.7381,E,1.50,137.27,231106,,,A*6B
$GPGGA,094459.161,4822.0937,N,01430.7973,E,1,04,2.6,319.8,M,45.2,M,,0000*52
$GPGSA,A,3,24,09,05,02,,,,,,,,,2.8,2.6,1.0*35
$GPRMC,094459.161,A,4822.0937,N,01430.7973,E,2.14,89.90,231106,,,A*58
$GPGGA,094500.161,4822.1008,N,01430.7749,E,1,04,2.6,284.0,M,45.2,M,,0000*51
$GPGSA,A,3,24,09,05,02,,,,,,,,,2.8,2.6,1.0*35
$GPRMC,094500.161,A,4822.1008,N,01430.7749,E,2.81,113.09,231106,,,A*68
$GPGGA,094501.000,4822.1056,N,01430.7668,E,1,04,2.6,264.7,M,45.2,M,,0000*56
$GPGSA,A,3,24,09,05,02,,,,,,,,,2.8,2.6,1.0*35
$GPGSV,3,1,10,05,80,040,32,09,38,146,31,02,31,107,31,24,29,097,34*71
$GPGSV,3,2,10,30,61,283,30,14,26,306,,04,25,063,37,01,19,319,*73
$GPGSV,3,3,10,06,18,218,28,07,15,050,*70
$GPRMC,094501.000,A,4822.1056,N,01430.7668,E,2.62,84.55,231106,,,A*5D
$GPGGA,094502.000,4822.1058,N,01430.7603,E,1,04,2.6,251.4,M,45.2,M,,0000*53
$GPGSA,A,3,24,09,05,02,,,,,,,,,2.8,2.6,1.0*35
$GPRMC,094502.000,A,4822.1058,N,01430.7603,E,2.53,53.22,231106,,,A*55
$GPGGA,094503.000,4822.1081,N,01430.7575,E,1,04,2.6,245.1,M,45.2,M,,0000*54
$GPGSA,A,3,24,09,05,02,,,,,,,,,2.8,2.6,1.0*35
$GPRMC,094503.000,A,4822.1081,N,01430.7575,E,2.04,52.65,231106,,,A*52
$GPGGA,094504.000,4822.1077,N,01430.7603,E,1,04,2.6,245.3,M,45.2,M,,0000*5A
$GPGSA,A,3,24,09,05,02,,,,,,,,,2.8,2.6,1.0*35
$GPRMC,094504.000,A,4822.1077,N,01430.7603,E,0.59,45.10,231106,,,A*50
$GPGGA,094505.000,4822.1073,N,01430.7605,E,1,04,2.6,243.6,M,45.2,M,,0000*5A
$GPGSA,A,3,24,09,05,02,,,,,,,,,2.8,2.6,1.0*35
$GPRMC,094505.000,A,4822.1073,N,01430.7605,E,0.00,,231106,,,A*71
$GPGGA,094506.000,4822.1073,N,01430.7605,E,1,04,2.6,243.6,M,45.2,M,,0000*59
$GPGSA,A,3,24,09,05,02,,,,,,,,,2.8,2.6,1.0*35
$GPGSV,3,1,10,05,80,040,30,09,38,146,34,02,31,107,34,24,29,097,35*72
$GPGSV,3,2,10,30,61,283,32,14,26,306,13,04,25,063,33,01,19,319,*77
$GPGSV,3,3,10,06,18,218,26,07,15,050,*7E
$GPRMC,094506.000,A,4822.1073,N,01430.7605,E,0.00,,231106,,,A*72
$GPGGA,094507.000,4822.1073,N,01430.7605,E,1,04,2.6,243.6,M,45.2,M,,0000*58
$GPGSA,A,3,24,09,05,02,,,,,,,,,2.8,2.6,1.0*35
$GPRMC,094507.000,A,4822.1073,N,01430.7605,E,0.00,,231106,,,A*73
$GPGGA,094508.000,4822.1073,N,01430.7605,E,1,04,2.6,243.6,M,45.2,M,,0000*57
$GPGSA,A,3,24,09,05,02,,,,,,,,,2.8,2.6,1.0*35
$GPRMC,094508.000,A,4822.1073,N,01430.7605,E,0.00,,231106,,,A*7C
$GPGGA,094509.000,4822.1073,N,01430.7605,E,1,04,2.6,243.6,M,45.2,M,,0000*56
$GPGSA,A,3,24,09,05,02,,,,,,,,,2.8,2.6,1.0*35
$GPRMC,094509.000,A,4822.1073,N,01430.7605,E,0.00,,231106,,,A*7D
$GPGGA,094510.000,4822.1073,N,01430.7605,E,1,04,2.6,243.6,M,45.2,M,,0000*5E
$GPGSA,A,3,24,09,05,02,,,,,,,,,2.8,2.6,1.0*35
$GPRMC,094510.000,A,4822.1073,N,01430.7605,E,0.00,,231106,,,A*75
$GPGGA,094511.000,4822.1073,N,01430.7605,E,1,04,2.6,243.6,M,45.2,M,,0000*5F
$GPGSA,A,3,24,09,05,02,,,,,,,,,2.8,2.6,1.0*35
$GPGSV,3,1,10,05,80,040,35,09,38,146,29,02,31,107,29,24,29,097,32*70
$GPGSV,3,2,10,30,61,283,33,14,26,306,,04,25,063,37,01,19,319,*70
$GPGSV,3,3,10,06,18,218,23,07,15,050,*7B
$GPRMC,094511.000,A,4822.1073,N,01430.7605,E,0.00,,231106,,,A*74
$GPGGA,094512.000,4822.1090,N,01430.7655,E,1,04,2.6,248.1,M,45.2,M,,0000*58
$GPGSA,A,3,24,09,05,02,,,,,,,,,2.8,2.6,1.0*35
$GPRMC,094512.000,A,4822.1090,N,01430.7655,E,2.80,70.41,231106,,,A*59
$GPGGA,094513.000,4822.1094,N,01430.7658,E,1,04,2.6,247.6,M,45.2,M,,0000*58
$GPGSA,A,3,24,09,05,02,,,,,,,,,2.8,2.6,1.0*35
$GPRMC,094513.000,A,4822.1094,N,01430.7658,E,1.97,85.11,231106,,,A*5B
$GPGGA,094514.000,4822.1099,N,01430.7661,E,1,04,2.6,247.1,M,45.2,M,,0000*5F
$GPGSA,A,3,24,09,05,02,,,,,,,,,2.8,2.6,1.0*35
$GPRMC,094514.000,A,4822.1099,N,01430.7661,E,2.04,76.12,231106,,,A*5D
$GPGGA,094515.000,4822.1094,N,01430.7681,E,1,04,2.6,251.7,M,45.2,M,,0000*5C
$GPGSA,A,3,24,09,05,02,,,,,,,,,2.8,2.6,1.0*35
$GPRMC,094515.000,A,4822.1094,N,01430.7681,E,0.00,,231106,,,A*75
$GPGGA,094516.000,4822.1094,N,01430.7681,E,1,04,2.6,251.7,M,45.2,M,,0000*5F
$GPGSA,A,3,24,09,05,02,,,,,,,,,2.8,2.6,1.0*35
$GPGSV,3,1,10,05,80,040,36,09,38,146,30,02,31,107,31,24,29,097,31*71
$GPGSV,3,2,10,30,61,283,38,14,26,306,,04,25,063,37,01,19,319,*7B
$GPGSV,3,3,10,06,18,218,24,07,15,050,*7C
$GPRMC,094516.000,A,4822.1094,N,01430.7681,E,0.00,,231106,,,A*76
$GPGGA,094517.000,4822.1094,N,01430.7681,E,1,04,2.6,251.7,M,45.2,M,,0000*5E
$GPGSA,A,3,24,09,05,02,,,,,,,,,2.8,2.6,1.0*35
$GPRMC,094517.000,A,4822.1094,N,01430.7681,E,0.00,,231106,,,A*77
$GPGGA,094518.000,4822.1094,N,01430.7681,E,1,04,2.6,251.7,M,45.2,M,,0000*51
$GPGSA,A,3,24,09,05,02,,,,,,,,,2.8,2.6,1.0*35
$GPRMC,094518.000,A,4822.1094,N,01430.7681,E,0.00,,231106,,,A*78
$GPGGA,094519.000,4822.1094,N,01430.7681,E,1,04,2.6,251.7,M,45.2,M,,0000*50
$GPGSA,A,3,24,09,05,02,,,,,,,,,2.8,2.6,1.0*35
$GPRMC,094519.000,A,4822.1094,N,01430.7681,E,0.00,,231106,,,A*79
$GPGGA,094520.000,4822.1094,N,01430.7681,E,1,04,2.6,251.7,M,45.2,M,,0000*5A
$GPGSA,A,3,24,09,05,02,,,,,,,,,2.8,2.6,1.0*35
$GPRMC,094520.000,A,4822.1094,N,01430.7681,E,0.00,,231106,,,A*73
$GPGGA,094521.000,4822.1094,N,01430.7681,E,1,04,2.6,251.7,M,45.2,M,,0000*5B
$GPGSA,A,3,24,09,05,02,,,,,,,,,2.8,2.6,1.0*35
$GPGSV,3,1,10,05,80,040,36,09,38,146,31,02,31,107,31,24,29,097,32*73
$GPGSV,3,2,10,30,61,283,33,14,26,306,,04,25,063,31,01,19,319,*76
$GPGSV,3,3,10,06,18,218,26,07,15,050,*7E
$GPRMC,094521.000,A,4822.1094,N,01430.7681,E,0.00,,231106,,,A*72
$GPGGA,094522.000,4822.1094,N,01430.7681,E,1,04,2.6,251.7,M,45.2,M,,0000*58
$GPGSA,A,3,24,09,05,02,,,,,,,,,2.8,2.6,1.0*35
$GPRMC,094522.000,A,4822.1094,N,01430.7681,E,0.00,,231106,,,A*71
$GPGGA,094523.000,4822.1094,N,01430.7681,E,1,04,2.6,251.7,M,45.2,M,,0000*59
$GPGSA,A,3,24,09,05,02,,,,,,,,,2.8,2.6,1.0*35
$GPRMC,094523.000,A,4822.1094,N,01430.7681,E,0.00,,231106,,,A*70
$GPGGA,094524.000,4822.1094,N,01430.7681,E,1,04,2.6,251.7,M,45.2,M,,0000*5E
$GPGSA,A,3,24,09,05,02,,,,,,,,,2.8,2.6,1.0*35
$GPRMC,094524.000,A,4822.1094,N,01430.7681,E,0.00,,231106,,,A*77
$GPGGA,094525.000,4822.1094,N,01430.7681,E,1,04,2.6,251.7,M,45.2,M,,0000*5F
$GPGSA,A,3,24,09,05,02,,,,,,,,,2.8,2.6,1.0*35
$GPRMC,094525.000,A,4822.1094,N,01430.7681,E,0.00,,231106,,,A*76
$GPGGA,094526.000,4822.1094,N,01430.7681,E,1,04,2.6,251.7,M,45.2,M,,0000*5C
$GPGSA,A,3,24,09,05,02,,,,,,,,,2.8,2.6,1.0*35
$GPGSV,3,1,10,05,80,040,32,09,38,146,34,02,31,107,34,24,29,097,32*77
$GPGSV,3,2,10,30,61,283,34,14,26,306,,04,25,063,37,01,19,319,*77
$GPGSV,3,3,10,06,18,218,27,07,15,050,*7F
$GPRMC,094526.000,A,4822.1094,N,01430.7681,E,0.00,,231106,,,A*75
$GPGGA,094527.000,4822.1094,N,01430.7681,E,1,04,2.6,251.7,M,45.2,M,,0000*5D
$GPGSA,A,3,24,09,05,02,,,,,,,,,2.8,2.6,1.0*35
$GPRMC,094527.000,A,4822.1094,N,01430.7681,E,0.00,,231106,,,A*74
$GPGGA,094528.000,4822.1094,N,01430.7681,E,1,04,2.6,251.7,M,45.2,M,,0000*52
$GPGSA,A,3,24,09,05,02,,,,,,,,,2.8,2.6,1.0*35
$GPRMC,094528.000,A,4822.1094,N,01430.7681,E,0.00,,231106,,,A*7B
$GPGGA,094529.000,4822.1094,N,01430.7681,E,1,04,2.6,251.7,M,45.2,M,,0000*53
$GPGSA,A,3,24,09,05,02,,,,,,,,,2.8,2.6,1.0*35
$GPRMC,094529.000,A,4822.1094,N,01430.7681,E,0.00,,231106,,,A*7A
$GPGGA,094530.000,4822.1094,N,01430.7681,E,1,04,2.6,251.7,M,45.2,M,,0000*5B
$GPGSA,A,3,24,09,05,02,,,,,,,,,2.8,2.6,1.0*35
$GPRMC,094530.000,A,4822.1094,N,01430.7681,E,0.00,,231106,,,A*72
$GPGGA,094531.000,4822.1094,N,01430.7681,E,1,04,2.6,251.7,M,45.2,M,,0000*5A
$GPGSA,A,3,24,09,05,02,,,,,,,,,2.8,2.6,1.0*35
$GPGSV,3,1,10,05,80,040,33,09,38,146,33,02,31,107,38,24,29,097,32*7D
$GPGSV,3,2,10,30,61,283,28,14,26,306,,04,25,063,34,01,19,319,*79
$GPGSV,3,3,10,06,18,218,33,07,15,050,*7A
$GPRMC,094531.000,A,4822.1094,N,01430.7681,E,0.00,,231106,,,A*73
$GPGGA,094532.000,4822.1094,N,01430.7681,E,1,04,2.6,251.7,M,45.2,M,,0000*59
$GPGSA,A,3,24,09,05,02,,,,,,,,,2.8,2.6,1.0*35
$GPRMC,094532.000,A,4822.1094,N,01430.7681,E,0.00,,231106,,,A*70
$GPGGA,094533.000,4822.1094,N,01430.7681,E,1,04,2.6,251.7,M,45.2,M,,0000*58
$GPGSA,A,3,24,09,05,02,,,,,,,,,2.8,2.6,1.0*35
$GPRMC,094533.000,A,4822.1094,N,01430.7681,E,0.00,,231106,,,A*71
$GPGGA,094534.000,4822.1094,N,01430.7681,E,1,04,2.6,251.7,M,45.2,M,,0000*5F
$GPGSA,A,3,24,09,05,02,,,,,,,,,2.8,2.6,1.0*35
$GPRMC,094534.000,A,4822.1094,N,01430.7681,E,0.00,,231106,,,A*76
$GPGGA,094535.000,4822.1134,N,01430.7846,E,1,04,2.6,260.4,M,45.2,M,,0000*51
$GPGSA,A,3,24,09,05,02,,,,,,,,,2.8,2.6,1.0*35
$GPRMC,094535.000,A,4822.1134,N,01430.7846,E,2.82,66.31,231106,,,A*5D
$GPGGA,094536.000,4822.1136,N,01430.7859,E,1,04,2.6,260.8,M,45.2,M,,0000*52
$GPGSA,A,3,24,09,05,02,,,,,,,,,2.7,2.6,1.0*3A
$GPGSV,3,1,10,05,80,040,32,09,38,146,30,02,31,107,34,24,29,097,33*72
$GPGSV,3,2,10,30,61,283,30,14,26,306,,04,25,063,37,01,19,319,*73
$GPGSV,3,3,10,06,18,218,32,07,15,050,*7B
$GPRMC,094536.000,A,4822.1136,N,01430.7859,E,2.50,78.45,231106,,,A*51
$GPGGA,094537.000,4822.1144,N,01430.7878,E,1,04,2.6,261.7,M,45.2,M,,0000*5B
$GPGSA,A,3,24,09,05,02,,,,,,,,,2.7,2.6,1.0*3A
$GPRMC,094537.000,A,4822.1144,N,01430.7878,E,2.58,73.29,231106,,,A*5F
$GPGGA,094538.000,4822.1152,N,01430.7897,E,1,04,2.6,262.8,M,45.2,M,,0000*5E
$GPGSA,A,3,24,09,05,02,,,,,,,,,2.7,2.6,1.0*3A
$GPRMC,094538.000,A,4822.1152,N,01430.7897,E,2.25,80.98,231106,,,A*5A
$GPGGA,094539.000,4822.1157,N,01430.7915,E,1,04,2.6,263.6,M,45.2,M,,0000*5E
$GPGSA,A,3,24,09,05,02,,,,,,,,,2.7,2.6,1.0*3A
$GPRMC,094539.000,A,4822.1157,N,01430.7915,E,2.54,84.92,231106,,,A*5D
$GPGGA,094540.000,4822.1159,N,01430.7932,E,1,04,2.6,264.4,M,45.2,M,,0000*5E
$GPGSA,A,3,24,09,05,02,,,,,,,,,2.7,2.6,1.0*3A
$GPRMC,094540.000,A,4822.1159,N,01430.7932,E,2.64,88.55,231106,,,A*5C
$GPGGA,094541.000,4822.1161,N,01430.7949,E,1,04,2.6,265.1,M,45.2,M,,0000*5C
$GPGSA,A,3,24,09,05,02,,,,,,,,,2.7,2.6,1.0*3A
$GPGSV,3,1,10,05,80,040,33,09,38,146,35,02,31,107,39,24,29,097,33*7B
$GPGSV,3,2,10,30,61,283,31,14,26,306,,04,25,063,32,01,19,319,*77
$GPGSV,3,3,10,06,18,218,29,07,15,050,*71
$GPRMC,094541.000,A,4822.1161,N,01430.7949,E,2.71,88.10,231106,,,A*5F
$GPGGA,094542.000,4822.1162,N,01430.7964,E,1,04,2.6,265.8,M,45.2,M,,0000*5A
$GPGSA,A,3,24,09,05,02,,,,,,,,,2.7,2.6,1.0*3A
$GPRMC,094542.000,A,4822.1162,N,01430.7964,E,2.69,83.79,231106,,,A*5D
$GPGGA,094543.000,4822.1164,N,01430.7980,E,1,04,2.6,266.5,M,45.2,M,,0000*59
$GPGSA,A,3,24,09,05,02,,,,,,,,,2.7,2.6,1.0*3A
$GPRMC,094543.000,A,4822.1164,N,01430.7980,E,2.68,80.00,231106,,,A*5C
$GPGGA,094544.000,4822.1167,N,01430.7995,E,1,04,2.6,267.2,M,45.2,M,,0000*5F
$GPGSA,A,3,24,09,05,02,,,,,,,,,2.7,2.6,1.0*3A
$GPRMC,094544.000,A,4822.1167,N,01430.7995,E,2.84,76.75,231106,,,A*55
$GPGGA,094545.000,4822.1169,N,01430.8011,E,1,04,2.6,267.9,M,45.2,M,,0000*51
$GPGSA,A,3,24,09,05,02,,,,,,,,,2.7,2.6,1.0*3A
$GPRMC,094545.000,A,4822.1169,N,01430.8011,E,2.76,76.43,231106,,,A*58
$GPGGA,094546.000,4822.1168,N,01430.8022,E,1,04,2.6,268.3,M,45.2,M,,0000*56
$GPGSA,A,3,24,09,05,02,,,,,,,,,2.7,2.6,1.0*3A
$GPGSV,3,1,10,05,80,040,33,09,38,146,29,02,31,107,39,24,29,097,34*71
$GPGSV,3,2,10,30,61,283,31,14,26,306,,04,25,063,38,01,19,319,*7D
$GPGSV,3,3,10,06,18,218,30,07,15,050,*79
$GPRMC,094546.000,A,4822.1168,N,01430.8022,E,2.38,90.41,231106,,,A*5A
$GPGGA,094547.000,4822.1166,N,01430.8032,E,1,04,2.6,268.6,M,45.2,M,,0000*5D
$GPGSA,A,3,24,09,05,02,,,,,,,,,2.7,2.6,1.0*3A
$GPRMC,094547.000,A,4822.1166,N,01430.8032,E,2.46,85.38,231106,,,A*57
$GPGGA,094548.000,4822.1165,N,01430.8042,E,1,04,2.6,268.8,M,45.2,M,,0000*58
$GPGSA,A,3,24,09,05,02,,,,,,,,,2.7,2.6,1.0*3A
$GPRMC,094548.000,A,4822.1165,N,01430.8042,E,0.00,,231106,,,A*74
$GPGGA,094549.000,4822.1165,N,01430.8042,E,1,04,2.6,268.8,M,45.2,M,,0000*59
$GPGSA,A,3,24,09,05,02,,,,,,,,,2.7,2.6,1.0*3A
$GPRMC,094549.000,A,4822.1165,N,01430.8042,E,0.00,,231106,,,A*75
$GPGGA,094550.000,4822.1165,N,01430.8042,E,1,04,2.6,268.8,M,45.2,M,,0000*51
$GPGSA,A,3,24,09,05,02,,,,,,,,,2.7,2.6,1.0*3A
$GPRMC,094550.000,A,4822.1165,N,01430.8042,E,0.00,,231106,,,A*7D
$GPGGA,094551.000,4822.1165,N,01430.8042,E,1,04,2.6,268.8,M,45.2,M,,0000*50
$GPGSA,A,3,24,09,05,02,,,,,,,,,2.7,2.6,1.0*3A
$GPGSV,3,1,10,05,80,042,33,30,61,284,30,09,38,146,31,02,31,106,25*7B
$GPGSV,3,2,10,24,29,097,25,14,27,306,,04,25,062,38,01,19,319,*76
$GPGSV,3,3,10,06,18,218,30,07,15,050,*79
$GPRMC,094551.000,A,4822.1165,N,01430.8042,E,0.00,,231106,,,A*7C
$GPGGA,094552.000,4822.1165,N,01430.8042,E,1,04,2.6,268.8,M,45.2,M,,0000*53
$GPGSA,A,3,24,09,05,02,,,,,,,,,2.7,2.6,1.0*3A
$GPRMC,094552.000,A,4822.1165,N,01430.8042,E,0.00,,231106,,,A*7F
$GPGGA,094553.000,4822.1165,N,01430.8042,E,1,04,2.6,268.8,M,45.2,M,,0000*52
$GPGSA,A,3,24,09,05,02,,,,,,,,,2.7,2.6,1.0*3A
$GPRMC,094553.000,A,4822.1165,N,01430.8042,E,0.00,,231106,,,A*7E
$GPGGA,094554.000,4822.1165,N,01430.8042,E,1,03,3.1,268.8,M,45.2,M,,0000*54
$GPGSA,A,2,09,05,02,,,,,,,,,,3.2,3.1,1.0*3F
$GPRMC,094554.000,A,4822.1165,N,01430.8042,E,0.00,,231106,,,A*79
$GPGGA,094555.000,4822.1165,N,01430.8042,E,1,03,3.1,268.8,M,45.2,M,,0000*55
$GPGSA,A,2,09,05,02,,,,,,,,,,3.2,3.1,1.0*3F
$GPRMC,094555.000,A,4822.1165,N,01430.8042,E,0.00,,231106,,,A*78
$GPGGA,094556.000,4822.1165,N,01430.8042,E,1,04,2.6,268.8,M,45.2,M,,0000*57
$GPGSA,A,3,24,09,05,02,,,,,,,,,2.7,2.6,1.0*3A
$GPGSV,3,1,10,05,80,042,33,30,61,284,28,09,38,146,32,02,31,106,23*77
$GPGSV,3,2,10,24,29,097,19,14,27,306,,04,25,062,26,01,19,319,*76
$GPGSV,3,3,10,06,18,218,30,07,15,050,*79
$GPRMC,094556.000,A,4822.1165,N,01430.8042,E,0.00,,231106,,,A*7B
$GPGGA,094557.000,4822.1165,N,01430.8042,E,1,03,3.1,268.8,M,45.2,M,,0000*57
$GPGSA,A,2,09,05,02,,,,,,,,,,3.2,3.1,1.0*3F
$GPRMC,094557.000,A,4822.1165,N,01430.8042,E,0.00,,231106,,,A*7A
$GPGGA,094558.000,4822.1165,N,01430.8042,E,1,03,3.1,268.8,M,45.2,M,,0000*58
$GPGSA,A,2,09,05,02,,,,,,,,,,3.2,3.1,1.0*3F
$GPRMC,094558.000,A,4822.1165,N,01430.8042,E,0.00,,231106,,,A*75
$GPGGA,094559.000,4822.1165,N,01430.8042,E,1,04,2.6,268.8,M,45.2,M,,0000*58
$GPGSA,A,3,24,09,05,02,,,,,,,,,2.7,2.6,1.0*3A
$GPRMC,094559.000,A,4822.1165,N,01430.8042,E,0.00,,231106,,,A*74
$GPGGA,094600.000,4822.1165,N,01430.8042,E,1,04,2.6,268.8,M,45.2,M,,0000*57
$GPGSA,A,3,24,09,05,02,,,,,,,,,2.7,2.6,1.0*3A
$GPRMC,094600.000,A,4822.1165,N,01430.8042,E,0.00,,231106,,,A*7B
$GPGGA,094601.000,4822.1129,N,01430.7854,E,1,04,2.6,252.7,M,45.2,M,,0000*58
$GPGSA,A,3,24,09,05,02,,,,,,,,,2.7,2.6,1.0*3A
$GPGSV,3,1,10,05,80,042,33,30,61,284,32,09,38,146,20,02,31,106,22*7E
$GPGSV,3,2,10,24,29,097,19,14,27,306,,04,25,062,18,01,19,319,*7B
$GPGSV,3,3,10,06,18,218,30,07,15,050,*79
$GPRMC,094601.000,A,4822.1129,N,01430.7854,E,2.85,329.32,231106,,,A*6A
$GPGGA,094602.000,4822.1139,N,01430.7824,E,1,04,2.6,252.3,M,45.2,M,,0000*59
$GPGSA,A,3,24,09,05,02,,,,,,,,,2.7,2.6,1.0*3A
$GPRMC,094602.000,A,4822.1139,N,01430.7824,E,3.74,316.04,231106,,,A*69
$GPGGA,094603.000,4822.1153,N,01430.7808,E,1,04,2.6,252.1,M,45.2,M,,0000*58
$GPGSA,A,3,24,09,05,02,,,,,,,,,2.7,2.6,1.0*3A
$GPRMC,094603.000,A,4822.1153,N,01430.7808,E,3.09,334.76,231106,,,A*65
$GPGGA,094604.000,4822.1163,N,01430.7804,E,1,04,2.6,251.7,M,45.2,M,,0000*55
$GPGSA,A,3,24,09,05,02,,,,,,,,,2.7,2.6,1.0*3A
$GPRMC,094604.000,A,4822.1163,N,01430.7804,E,1.92,21.18,231106,,,A*52
$GPGGA,094605.000,4822.1169,N,01430.7800,E,1,04,2.6,251.9,M,45.2,M,,0000*54
$GPGSA,A,3,24,09,05,02,,,,,,,,,2.7,2.6,1.0*3A
$GPRMC,094605.000,A,4822.1169,N,01430.7800,E,0.69,325.58,231106,,,A*6B
$GPGGA,094606.000,4822.1176,N,01430.7790,E,1,04,2.6,251.7,M,45.2,M,,0000*51
$GPGSA,A,3,24,09,05,02,,,,,,,,,2.7,2.6,1.0*3A
$GPGSV,3,1,10,05,80,042,34,30,61,284,35,09,38,146,22,02,31,106,23*7D
$GPGSV,3,2,10,24,29,097,20,14,27,306,,04,25,062,31,01,19,319,*7A
$GPGSV,3,3,10,06,18,218,31,07,15,050,*78
$GPRMC,094606.000,A,4822.1176,N,01430.7790,E,0.00,,231106,,,A*78
$GPGGA,094607.000,4822.1176,N,01430.7790,E,1,04,2.6,251.7,M,45.2,M,,0000*50
$GPGSA,A,3,24,09,05,02,,,,,,,,,2.7,2.6,1.0*3A
$GPRMC,094607.000,A,4822.1176,N,01430.7790,E,0.00,,231106,,,A*79
$GPGGA,094608.000,4822.1176,N,01430.7790,E,1,04,2.6,251.7,M,45.2,M,,0000*5F
$GPGSA,A,3,24,09,05,02,,,,,,,,,2.7,2.6,1.0*3A
$GPRMC,094608.000,A,4822.1176,N,01430.7790,E,0.00,,231106,,,A*76
$GPGGA,094609.000,4822.1176,N,01430.7790,E,1,04,2.6,251.7,M,45.2,M,,0000*5E
$GPGSA,A,3,24,09,05,02,,,,,,,,,2.7,2.6,1.0*3A
$GPRMC,094609.000,A,4822.1176,N,01430.7790,E,0.00,,231106,,,A*77
$GPGGA,094610.000,4822.1176,N,01430.7790,E,1,04,2.6,251.7,M,45.2,M,,0000*56
$GPGSA,A,3,24,09,05,02,,,,,,,,,2.7,2.6,1.0*3A
$GPRMC,094610.000,A,4822.1176,N,01430.7790,E,0.00,,231106,,,A*7F
$GPGGA,094611.000,4822.1176,N,01430.7790,E,1,04,2.6,251.7,M,45.2,M,,0000*57
$GPGSA,A,3,24,09,05,02,,,,,,,,,2.7,2.6,1.0*3A
$GPGSV,3,1,10,05,80,042,30,30,61,284,36,09,38,146,27,02,31,106,29*75
$GPGSV,3,2,10,24,29,097,30,14,27,306,,04,25,062,31,01,19,319,*7B
$GPGSV,3,3,10,06,18,218,31,07,15,050,*78
$GPRMC,094611.000,A,4822.1176,N,01430.7790,E,0.00,,231106,,,A*7E
$GPGGA,094612.000,4822.1176,N,01430.7790,E,1,04,2.6,251.7,M,45.2,M,,0000*54
$GPGSA,A,3,24,09,05,02,,,,,,,,,2.7,2.6,1.0*3A
$GPRMC,094612.000,A,4822.1176,N,01430.7790,E,0.00,,231106,,,A*7D
$GPGGA,094613.000,4822.1260,N,01430.7881,E,1,04,2.6,247.4,M,45.2,M,,0000*5A
$GPGSA,A,3,24,09,05,02,,,,,,,,,2.7,2.6,1.0*3A
$GPRMC,094613.000,A,4822.1260,N,01430.7881,E,3.12,35.24,231106,,,A*59
$GPGGA,094614.000,4822.1278,N,01430.7918,E,1,04,2.6,248.0,M,45.2,M,,0000*5E
$GPGSA,A,3,24,09,05,02,,,,,,,,,2.7,2.6,1.0*3A
$GPRMC,094614.000,A,4822.1278,N,01430.7918,E,3.57,33.36,231106,,,A*52
$GPGGA,094615.000,4822.1290,N,01430.7949,E,1,04,2.6,249.0,M,45.2,M,,0000*5C
$GPGSA,A,3,24,09,05,02,,,,,,,,,2.7,2.6,1.0*3A
$GPRMC,094615.000,A,4822.1290,N,01430.7949,E,2.75,32.83,231106,,,A*5F
$GPGGA,094616.000,4822.1292,N,01430.7971,E,1,04,2.6,250.1,M,45.2,M,,0000*5F
$GPGSA,A,3,24,09,05,02,,,,,,,,,2.7,2.6,1.0*3A
$GPGSV,3,1,10,05,80,042,32,30,61,284,25,09,38,146,26,02,31,106,32*7E
$GPGSV,3,2,10,24,29,097,31,14,27,306,,04,25,062,30,01,19,319,*7B
$GPGSV,3,3,10,06,18,218,26,07,15,050,*7E
$GPRMC,094616.000,A,4822.1292,N,01430.7971,E,0.48,82.85,231106,,,A*54
$GPGGA,094617.000,4822.1300,N,01430.7999,E,1,04,2.6,250.6,M,45.2,M,,0000*55
$GPGSA,A,3,24,09,05,02,,,,,,,,,2.7,2.6,1.0*3A
$GPRMC,094617.000,A,4822.1300,N,01430.7999,E,2.50,57.13,231106,,,A*55
$GPGGA,094618.000,4822.1305,N,01430.8026,E,1,04,2.6,250.9,M,45.2,M,,0000*52
$GPGSA,A,3,24,09,05,02,,,,,,,,,2.7,2.6,1.0*3A
$GPRMC,094618.000,A,4822.1305,N,01430.8026,E,3.50,58.85,231106,,,A*5C
$GPGGA,094619.000,4822.1308,N,01430.8048,E,1,04,2.6,251.2,M,45.2,M,,0000*5C
$GPGSA,A,3,24,09,05,02,,,,,,,,,2.7,2.6,1.0*3A
$GPRMC,094619.000,A,4822.1308,N,01430.8048,E,2.82,54.20,231106,,,A*55
$GPGGA,094620.000,4822.1311,N,01430.8068,E,1,04,2.6,251.3,M,45.2,M,,0000*5D
$GPGSA,A,3,24,09,05,02,,,,,,,,,2.7,2.6,1.0*3A
$GPRMC,094620.000,A,4822.1311,N,01430.8068,E,3.03,60.57,231106,,,A*5A
$GPGGA,094621.000,4822.1313,N,01430.8086,E,1,04,2.6,251.3,M,45.2,M,,0000*5E
$GPGSA,A,3,24,09,05,02,,,,,,,,,2.7,2.6,1.0*3A
$GPGSV,3,1,10,05,80,042,32,30,61,284,28,09,38,146,27,02,31,106,32*72
$GPGSV,3,2,10,24,29,097,32,14,27,306,,04,25,062,31,01,19,319,*79
$GPGSV,3,3,10,06,18,218,31,07,15,050,*78
$GPRMC,094621.000,A,4822.1313,N,01430.8086,E,2.56,57.24,231106,,,A*58
$GPGGA,094622.000,4822.1316,N,01430.8095,E,1,04,2.6,250.8,M,45.2,M,,0000*50
$GPGSA,A,3,24,09,05,02,,,,,,,,,2.7,2.6,1.0*3A
$GPRMC,094622.000,A,4822.1316,N,01430.8095,E,2.69,62.49,231106,,,A*5D
$GPGGA,094623.000,4822.1316,N,01430.8103,E,1,04,2.6,250.2,M,45.2,M,,0000*55
$GPGSA,A,3,24,09,05,02,,,,,,,,,2.7,2.6,1.0*3A
$GPRMC,094623.000,A,4822.1316,N,01430.8103,E,2.20,63.84,231106,,,A*5F
$GPGGA,094624.000,4822.1318,N,01430.8106,E,1,04,2.6,249.3,M,45.2,M,,0000*50
$GPGSA,A,3,24,09,05,02,,,,,,,,,2.7,2.6,1.0*3A
$GPRMC,094624.000,A,4822.1318,N,01430.8106,E,1.66,66.25,231106,,,A*5C
$GPGGA,094625.000,4822.1327,N,01430.8111,E,1,04,2.6,248.1,M,45.2,M,,0000*58
$GPGSA,A,3,24,09,05,02,,,,,,,,,2.7,2.6,1.0*3A
$GPRMC,094625.000,A,4822.1327,N,01430.8111,E,2.92,44.90,231106,,,A*51
$GPGGA,094626.000,4822.1334,N,01430.8126,E,1,04,2.6,247.8,M,45.2,M,,0000*5B
$GPGSA,A,3,24,09,05,02,,,,,,,,,2.7,2.6,1.0*3A
$GPGSV,3,1,10,05,80,042,32,30,61,284,33,09,38,146,26,02,31,106,30*7B
$GPGSV,3,2,10,24,29,097,32,14,27,306,,04,25,062,37,01,19,319,*7F
$GPGSV,3,3,10,06,18,218,22,07,15,050,*7A
$GPRMC,094626.000,A,4822.1334,N,01430.8126,E,4.26,44.53,231106,,,A*52
$GPGGA,094627.000,4822.1336,N,01430.8150,E,1,04,2.6,248.1,M,45.2,M,,0000*5F
$GPGSA,A,3,24,09,05,02,,,,,,,,,2.7,2.6,1.0*3A
$GPRMC,094627.000,A,4822.1336,N,01430.8150,E,3.76,53.35,231106,,,A*54
$GPGGA,094628.000,4822.1333,N,01430.8168,E,1,04,2.6,248.4,M,45.2,M,,0000*5B
$GPGSA,A,3,24,09,05,02,,,,,,,,,2.7,2.6,1.0*3A
$GPRMC,094628.000,A,4822.1333,N,01430.8168,E,2.81,73.98,231106,,,A*59
$GPGGA,094629.000,4822.1334,N,01430.8185,E,1,04,2.6,249.0,M,45.2,M,,0000*5B
$GPGSA,A,3,24,09,05,02,,,,,,,,,2.7,2.6,1.0*3A
$GPRMC,094629.000,A,4822.1334,N,01430.8185,E,3.48,48.75,231106,,,A*53
$GPGGA,094630.000,4822.1330,N,01430.8194,E,1,04,2.6,249.3,M,45.2,M,,0000*54
$GPGSA,A,3,24,09,05,02,,,,,,,,,2.7,2.6,1.0*3A
$GPRMC,094630.000,A,4822.1330,N,01430.8194,E,2.66,46.80,231106,,,A*56
$GPGGA,094631.000,4822.1331,N,01430.8199,E,1,04,2.6,249.6,M,45.2,M,,0000*5C
$GPGSA,A,3,24,09,05,02,,,,,,,,,2.7,2.6,1.0*3A
$GPGSV,3,1,10,05,80,042,32,30,61,284,35,09,38,146,29,02,31,106,31*73
$GPGSV,3,2,10,24,29,097,32,14,27,306,,04,25,062,30,01,19,319,*78
$GPGSV,3,3,10,06,18,218,22,07,15,050,*7A
$GPRMC,094631.000,A,4822.1331,N,01430.8199,E,1.98,9.95,231106,,,A*66
$GPGGA,094632.000,4822.1332,N,01430.8199,E,1,04,2.6,249.9,M,45.2,M,,0000*53
$GPGSA,A,3,24,09,05,02,,,,,,,,,2.7,2.6,1.0*3A
$GPRMC,094632.000,A,4822.1332,N,01430.8199,E,2.01,348.87,231106,,,A*60
$GPGGA,094633.000,4822.1334,N,01430.8195,E,1,04,2.6,250.0,M,45.2,M,,0000*59
$GPGSA,A,3,24,09,05,02,,,,,,,,,2.7,2.6,1.0*3A
$GPRMC,094633.000,A,4822.1334,N,01430.8195,E,0.00,,231106,,,A*76
$GPGGA,094634.000,4822.1334,N,01430.8195,E,1,04,2.6,250.0,M,45.2,M,,0000*5E
$GPGSA,A,3,24,09,05,02,,,,,,,,,2.7,2.6,1.0*3A
$GPRMC,094634.000,A,4822.1334,N,01430.8195,E,0.00,,231106,,,A*71
$GPGGA,094635.000,4822.1334,N,01430.8195,E,1,04,2.6,250.0,M,45.2,M,,0000*5F
$GPGSA,A,3,24,09,05,02,,,,,,,,,2.7,2.6,1.0*3A
$GPRMC,094635.000,A,4822.1334,N,01430.8195,E,0.00,,231106,,,A*70
$GPGGA,094636.000,4822.1334,N,01430.8195,E,1,04,2.6,250.0,M,45.2,M,,0000*5C
$GPGSA,A,3,24,09,05,02,,,,,,,,,2.7,2.6,1.0*3A
$GPGSV,3,1,10,05,80,042,29,30,61,284,38,09,38,146,30,02,31,106,33*7E
$GPGSV,3,2,10,24,29,097,28,14,27,306,,04,25,062,30,01,19,319,30*70
$GPGSV,3,3,10,06,18,218,34,07,15,050,*7D
$GPRMC,094636.000,A,4822.1334,N,01430.8195,E,0.00,,231106,,,A*73
$GPGGA,094637.000,4822.1334,N,01430.8195,E,1,04,2.6,250.0,M,45.2,M,,0000*5D
$GPGSA,A,3,24,09,05,02,,,,,,,,,2.7,2.6,1.0*3A
$GPRMC,094637.000,A,4822.1334,N,01430.8195,E,0.00,,231106,,,A*72
$GPGGA,094638.000,4822.1334,N,01430.8195,E,1,04,2.6,250.0,M,45.2,M,,0000*52
$GPGSA,A,3,24,09,05,02,,,,,,,,,2.7,2.6,1.0*3A
$GPRMC,094638.000,A,4822.1334,N,01430.8195,E,0.00,,231106,,,A*7D
$GPGGA,094639.000,4822.1334,N,01430.8195,E,1,04,2.6,250.0,M,45.2,M,,0000*53
$GPGSA,A,3,24,09,05,02,,,,,,,,,2.7,2.6,1.0*3A
$GPRMC,094639.000,A,4822.1334,N,01430.8195,E,0.00,,231106,,,A*7C
$GPGGA,094640.000,4822.1334,N,01430.8195,E,1,04,2.5,250.0,M,45.2,M,,0000*5E
$GPGSA,A,3,24,09,05,02,,,,,,,,,2.7,2.5,1.0*39
$GPRMC,094640.000,A,4822.1334,N,01430.8195,E,0.00,,231106,,,A*72
$GPGGA,094641.000,4822.1334,N,01430.8195,E,1,04,2.5,250.0,M,45.2,M,,0000*5F
$GPGSA,A,3,24,09,05,02,,,,,,,,,2.7,2.5,1.0*39
$GPGSV,3,1,10,05,80,042,32,30,61,284,37,09,38,146,29,02,31,106,25*74
$GPGSV,3,2,10,24,29,097,24,14,27,306,,04,25,062,36,01,19,319,28*73
$GPGSV,3,3,10,06,18,218,34,07,15,050,*7D
$GPRMC,094641.000,A,4822.1334,N,01430.8195,E,0.00,,231106,,,A*73
$GPGGA,094642.000,4822.1334,N,01430.8195,E,1,04,2.5,250.0,M,45.2,M,,0000*5C
$GPGSA,A,3,24,09,05,02,,,,,,,,,2.7,2.5,1.0*39
$GPRMC,094642.000,A,4822.1334,N,01430.8195,E,0.00,,231106,,,A*70
$GPGGA,094643.000,4822.1334,N,01430.8195,E,1,04,2.5,250.0,M,45.2,M,,0000*5D
$GPGSA,A,3,24,09,05,02,,,,,,,,,2.7,2.5,1.0*39
$GPRMC,094643.000,A,4822.1334,N,01430.8195,E,0.00,,231106,,,A*71
$GPGGA,094644.000,4822.1334,N,01430.8195,E,1,04,2.5,250.0,M,45.2,M,,0000*5A
$GPGSA,A,3,24,09,05,02,,,,,,,,,2.7,2.5,1.0*39
$GPRMC,094644.000,A,4822.1334,N,01430.8195,E,0.00,,231106,,,A*76
$GPGGA,094645.000,4822.1334,N,01430.8195,E,1,04,2.5,250.0,M,45.2,M,,0000*5B
$GPGSA,A,3,24,09,05,02,,,,,,,,,2.7,2.5,1.0*39
$GPRMC,094645.000,A,4822.1334,N,01430.8195,E,0.00,,231106,,,A*77
$GPGGA,094646.000,4822.1334,N,01430.8195,E,1,04,2.5,250.0,M,45.2,M,,0000*58
$GPGSA,A,3,24,09,05,02,,,,,,,,,2.7,2.5,1.0*39
$GPGSV,3,1,10,05,80,042,26,30,61,284,36,09,38,146,29,02,31,106,26*73
$GPGSV,3,2,10,24,29,097,26,14,27,306,,04,25,062,33,01,19,319,24*78
$GPGSV,3,3,10,06,18,218,34,07,15,050,*7D
$GPRMC,094646.000,A,4822.1334,N,01430.8195,E,0.00,,231106,,,A*74
$GPGGA,094647.000,4822.1334,N,01430.8195,E,1,04,2.5,250.0,M,45.2,M,,0000*59
$GPGSA,A,3,24,09,05,02,,,,,,,,,2.7,2.5,1.0*39
$GPRMC,094647.000,A,4822.1334,N,01430.8195,E,0.00,,231106,,,A*75
$GPGGA,094648.000,4822.1394,N,01430.8086,E,1,04,2.5,248.0,M,45.2,M,,0000*56
$GPGSA,A,3,24,09,05,02,,,,,,,,,2.7,2.5,1.0*39
$GPRMC,094648.000,A,4822.1394,N,01430.8086,E,3.29,349.07,231106,,,A*6C
$GPGGA,094649.000,4822.1404,N,01430.8077,E,1,04,2.5,247.0,M,45.2,M,,0000*58
$GPGSA,A,3,24,09,05,02,,,,,,,,,2.7,2.5,1.0*39
$GPRMC,094649.000,A,4822.1404,N,01430.8077,E,3.03,345.36,231106,,,A*6B
$GPGGA,094650.000,4822.1414,N,01430.8073,E,1,04,2.5,246.2,M,45.2,M,,0000*56
$GPGSA,A,3,24,09,05,02,,,,,,,,,2.7,2.5,1.0*39
$GPRMC,094650.000,A,4822.1414,N,01430.8073,E,2.01,342.60,231106,,,A*61
$GPGGA,094651.000,4822.1424,N,01430.8072,E,1,04,2.5,246.2,M,45.2,M,,0000*55
$GPGSA,A,3,24,09,05,02,,,,,,,,,2.7,2.5,1.0*39
$GPGSV,3,1,10,05,80,042,32,30,61,284,36,09,38,146,28,02,31,106,29*78
$GPGSV,3,2,10,24,29,097,28,14,27,306,,04,25,062,30,01,19,319,24*75
$GPGSV,3,3,10,06,18,218,34,07,15,050,*7D
$GPRMC,094651.000,A,4822.1424,N,01430.8072,E,1.66,4.77,231106,,,A*67
$GPGGA,094652.000,4822.1431,N,01430.8062,E,1,04,2.5,246.0,M,45.2,M,,0000*51
$GPGSA,A,3,24,09,05,02,,,,,,,,,2.7,2.5,1.0*39
$GPRMC,094652.000,A,4822.1431,N,01430.8062,E,0.00,,231106,,,A*7A
$GPGGA,094653.000,4822.1431,N,01430.8062,E,1,04,2.5,246.0,M,45.2,M,,0000*50
$GPGSA,A,3,24,09,05,02,,,,,,,,,2.7,2.5,1.0*39
$GPRMC,094653.000,A,4822.1431,N,01430.8062,E,0.00,,231106,,,A*7B
$GPGGA,094654.000,4822.1441,N,01430.8029,E,1,04,2.5,244.1,M,45.2,M,,0000*5C
$GPGSA,A,3,24,09,05,02,,,,,,,,,2.7,2.5,1.0*39
$GPRMC,094654.000,A,4822.1441,N,01430.8029,E,3.42,292.05,231106,,,A*63
$GPGGA,094655.000,4822.1441,N,01430.8015,E,1,04,2.5,243.7,M,45.2,M,,0000*53
$GPGSA,A,3,24,09,05,02,,,,,,,,,2.7,2.5,1.0*39
$GPRMC,094655.000,A,4822.1441,N,01430.8015,E,3.30,269.63,231106,,,A*6C
$GPGGA,094656.000,4822.1442,N,01430.8003,E,1,04,2.5,243.4,M,45.2,M,,0000*57
$GPGSA,A,3,24,09,05,02,,,,,,,,,2.7,2.5,1.0*39
$GPGSV,3,1,10,05,80,042,32,30,61,284,36,09,38,146,29,02,31,106,27*77
$GPGSV,3,2,10,24,29,097,29,14,27,306,,04,25,062,31,01,19,319,17*75
$GPGSV,3,3,10,06,18,218,27,07,15,050,*7F
$GPRMC,094656.000,A,4822.1442,N,01430.8003,E,2.63,270.92,231106,,,A*6A
$GPGGA,094657.000,4822.1439,N,01430.7992,E,1,04,2.5,243.0,M,45.2,M,,0000*50
$GPGSA,A,3,24,09,05,02,,,,,,,,,2.7,2.5,1.0*39
$GPRMC,094657.000,A,4822.1439,N,01430.7992,E,2.18,279.47,231106,,,A*64
$GPGGA,094658.000,4822.1438,N,01430.7985,E,1,04,2.5,242.1,M,45.2,M,,0000*58
$GPGSA,A,3,24,09,05,02,,,,,,,,,2.7,2.5,1.0*39
$GPRMC,094658.000,A,4822.1438,N,01430.7985,E,0.63,309.29,231106,,,A*6C
$GPGGA,094659.000,4822.1434,N,01430.7976,E,1,04,2.5,241.4,M,45.2,M,,0000*5F
$GPGSA,A,3,24,09,05,02,,,,,,,,,2.7,2.5,1.0*39
$GPRMC,094659.000,A,4822.1434,N,01430.7976,E,0.00,,231106,,,A*77
$GPGGA,094700.000,4822.1434,N,01430.7976,E,1,04,2.5,241.4,M,45.2,M,,0000*52
$GPGSA,A,3,24,09,05,02,,,,,,,,,2.7,2.5,1.0*39
$GPRMC,094700.000,A,4822.1434,N,01430.7976,E,0.00,,231106,,,A*7A
$GPGGA,094701.000,4822.1434,N,01430.7976,E,1,04,2.5,241.4,M,45.2,M,,0000*53
$GPGSA,A,3,24,09,05,02,,,,,,,,,2.7,2.5,1.0*39
$GPGSV,3,1,10,05,80,042,28,30,61,284,32,09,38,146,30,02,31,106,27*70
$GPGSV,3,2,10,24,29,097,28,14,27,306,,04,25,062,32,01,19,319,16*76
$GPGSV,3,3,10,06,18,218,36,07,15,050,*7F
$GPRMC,094701.000,A,4822.1434,N,01430.7976,E,0.00,,231106,,,A*7B
$GPGGA,094702.000,4822.1434,N,01430.7976,E,1,04,2.5,241.4,M,45.2,M,,0000*50
$GPGSA,A,3,24,09,05,02,,,,,,,,,2.7,2.5,1.0*39
$GPRMC,094702.000,A,4822.1434,N,01430.7976,E,0.00,,231106,,,A*78
$GPGGA,094703.000,4822.1434,N,01430.7976,E,1,04,2.5,241.4,M,45.2,M,,0000*51
$GPGSA,A,3,24,09,05,02,,,,,,,,,2.7,2.5,1.0*39
$GPRMC,094703.000,A,4822.1434,N,01430.7976,E,0.00,,231106,,,A*79
$GPGGA,094704.000,4822.1434,N,01430.7976,E,1,04,2.5,241.4,M,45.2,M,,0000*56
$GPGSA,A,3,24,09,05,02,,,,,,,,,2.7,2.5,1.0*39
$GPRMC,094704.000,A,4822.1434,N,01430.7976,E,0.00,,231106,,,A*7E
$GPGGA,094705.000,4822.1434,N,01430.7976,E,1,04,2.5,241.4,M,45.2,M,,0000*57
$GPGSA,A,3,24,09,05,02,,,,,,,,,2.7,2.5,1.0*39
$GPRMC,094705.000,A,4822.1434,N,01430.7976,E,0.00,,231106,,,A*7F
$GPGGA,094706.000,4822.1434,N,01430.7976,E,1,04,2.5,241.4,M,45.2,M,,0000*54
$GPGSA,A,3,24,09,05,02,,,,,,,,,2.7,2.5,1.0*39
$GPGSV,3,1,10,05,80,042,28,30,61,284,28,09,38,146,28,02,31,106,27*72
$GPGSV,3,2,10,24,29,097,28,14,27,306,,04,25,062,33,01,19,319,*70
$GPGSV,3,3,10,06,18,218,35,07,15,050,*7C
$GPRMC,094706.000,A,4822.1434,N,01430.7976,E,0.00,,231106,,,A*7C
$GPGGA,094707.000,4822.1434,N,01430.7976,E,1,04,2.5,241.4,M,45.2,M,,0000*55
$GPGSA,A,3,24,09,05,02,,,,,,,,,2.7,2.5,1.0*39
$GPRMC,094707.000,A,4822.1434,N,01430.7976,E,0.00,,231106,,,A*7D
$GPGGA,094708.000,4822.1434,N,01430.7976,E,1,04,2.5,241.4,M,45.2,M,,0000*5A
$GPGSA,A,3,24,09,05,02,,,,,,,,,2.7,2.5,1.0*39
$GPRMC,094708.000,A,4822.1434,N,01430.7976,E,0.00,,231106,,,A*72
$GPGGA,094709.000,4822.1434,N,01430.7976,E,1,04,2.5,241.4,M,45.2,M,,0000*5B
$GPGSA,A,3,24,09,05,02,,,,,,,,,2.7,2.5,1.0*39
$GPRMC,094709.000,A,4822.1434,N,01430.7976,E,0.00,,231106,,,A*73
$GPGGA,094710.000,4822.1434,N,01430.7976,E,1,04,2.5,241.4,M,45.2,M,,0000*53
$GPGSA,A,3,24,09,05,02,,,,,,,,,2.7,2.5,1.0*39
$GPRMC,094710.000,A,4822.1434,N,01430.7976,E,0.00,,231106,,,A*7B
$GPGGA,094711.000,4822.1434,N,01430.7976,E,1,04,2.5,241.4,M,45.2,M,,0000*52
$GPGSA,A,3,24,09,05,02,,,,,,,,,2.7,2.5,1.0*39
$GPGSV,3,1,10,05,80,042,22,30,61,284,26,09,38,146,31,02,31,106,27*7E
$GPGSV,3,2,10,24,29,097,27,14,27,306,,04,25,062,22,01,19,319,*7F
$GPGSV,3,3,10,06,18,218,31,07,15,050,*78
$GPRMC,094711.000,A,4822.1434,N,01430.7976,E,0.00,,231106,,,A*7A
$GPGGA,094712.000,4822.1434,N,01430.7976,E,1,04,2.5,241.4,M,45.2,M,,0000*51
$GPGSA,A,3,24,09,05,02,,,,,,,,,2.7,2.5,1.0*39
$GPRMC,094712.000,A,4822.1434,N,01430.7976,E,0.00,,231106,,,A*79
$GPGGA,094713.000,4822.1434,N,01430.7976,E,1,04,2.5,241.4,M,45.2,M,,0000*50
$GPGSA,A,3,24,09,05,02,,,,,,,,,2.7,2.5,1.0*39
$GPRMC,094713.000,A,4822.1434,N,01430.7976,E,0.00,,231106,,,A*78
$GPGGA,094714.000,4822.1434,N,01430.7976,E,1,04,2.5,241.4,M,45.2,M,,0000*57
$GPGSA,A,3,24,09,05,02,,,,,,,,,2.7,2.5,1.0*39
$GPRMC,094714.000,A,4822.1434,N,01430.7976,E,0.00,,231106,,,A*7F
$GPGGA,094715.000,4822.1434,N,01430.7976,E,1,04,2.5,241.4,M,45.2,M,,0000*56
$GPGSA,A,3,24,09,05,02,,,,,,,,,2.7,2.5,1.0*39
$GPRMC,094715.000,A,4822.1434,N,01430.7976,E,0.00,,231106,,,A*7E
$GPGGA,094716.000,4822.1434,N,01430.7976,E,1,04,2.5,241.4,M,45.2,M,,0000*55
$GPGSA,A,3,24,09,05,02,,,,,,,,,2.7,2.5,1.0*39
$GPGSV,3,1,10,05,80,042,22,30,61,284,23,09,38,146,33,02,31,106,31*7E
$GPGSV,3,2,10,24,29,097,27,14,27,306,,04,25,062,21,01,19,319,*7C
$GPGSV,3,3,10,06,18,218,32,07,15,050,*7B
$GPRMC,094716.000,A,4822.1434,N,01430.7976,E,0.00,,231106,,,A*7D
$GPGGA,094717.000,4822.1434,N,01430.7976,E,1,04,2.5,241.4,M,45.2,M,,0000*54
$GPGSA,A,3,24,09,05,02,,,,,,,,,2.7,2.5,1.0*39
$GPRMC,094717.000,A,4822.1434,N,01430.7976,E,0.00,,231106,,,A*7C
$GPGGA,094718.000,4822.1411,N,01430.7861,E,1,04,2.5,233.8,M,45.2,M,,0000*52
$GPGSA,A,3,24,09,05,02,,,,,,,,,2.7,2.5,1.0*39
$GPRMC,094718.000,A,4822.1411,N,01430.7861,E,2.83,290.51,231106,,,A*6B
$GPGGA,094719.000,4822.1415,N,01430.7862,E,1,04,2.5,233.2,M,45.2,M,,0000*5E
$GPGSA,A,3,24,09,05,02,,,,,,,,,2.7,2.5,1.0*39
$GPRMC,094719.000,A,4822.1415,N,01430.7862,E,2.38,321.92,231106,,,A*69
$GPGGA,094720.000,4822.1409,N,01430.7858,E,1,04,2.5,232.7,M,45.2,M,,0000*54
$GPGSA,A,3,24,09,05,02,,,,,,,,,2.7,2.5,1.0*39
$GPRMC,094720.000,A,4822.1409,N,01430.7858,E,1.94,285.46,231106,,,A*64
$GPGGA,094721.000,4822.1403,N,01430.7850,E,1,04,2.5,232.3,M,45.2,M,,0000*53
$GPGSA,A,3,24,09,05,02,,,,,,,,,2.7,2.5,1.0*39
$GPGSV,3,1,10,05,80,042,22,30,61,284,24,09,38,146,32,02,31,106,25*7D
$GPGSV,3,2,10,24,29,097,26,14,27,306,,04,25,062,21,01,19,319,*7D
$GPGSV,3,3,10,06,18,218,30,07,15,050,*79
$GPRMC,094721.000,A,4822.1403,N,01430.7850,E,0.00,,231106,,,A*78
$GPGGA,094722.000,4822.1403,N,01430.7850,E,1,04,2.5,232.3,M,45.2,M,,0000*50
$GPGSA,A,3,24,09,05,02,,,,,,,,,2.7,2.5,1.0*39
$GPRMC,094722.000,A,4822.1403,N,01430.7850,E,0.00,,231106,,,A*7B
$GPGGA,094723.000,4822.1399,N,01430.7823,E,1,04,2.5,232.0,M,45.2,M,,0000*52
$GPGSA,A,3,24,09,05,02,,,,,,,,,2.7,2.5,1.0*39
$GPRMC,094723.000,A,4822.1399,N,01430.7823,E,3.78,255.09,231106,,,A*63
$GPGGA,094724.000,4822.1402,N,01430.7801,E,1,04,2.5,231.4,M,45.2,M,,0000*57
$GPGSA,A,3,24,09,05,02,,,,,,,,,2.7,2.5,1.0*39
$GPRMC,094724.000,A,4822.1402,N,01430.7801,E,3.87,270.83,231106,,,A*64
$GPGGA,094725.000,4822.1401,N,01430.7786,E,1,04,2.5,230.9,M,45.2,M,,0000*59
$GPGSA,A,3,24,09,05,02,,,,,,,,,2.7,2.5,1.0*39
$GPRMC,094725.000,A,4822.1401,N,01430.7786,E,3.13,273.06,231106,,,A*65
$GPGGA,094726.000,4822.1400,N,01430.7774,E,1,04,2.5,230.6,M,45.2,M,,0000*59
$GPGSA,A,3,24,09,05,02,,,,,,,,,2.7,2.5,1.0*39
$GPGSV,3,1,10,05,80,042,22,30,61,284,24,09,38,146,33,02,31,106,27*7E
$GPGSV,3,2,10,24,29,097,25,14,27,306,,04,25,062,20,01,19,319,*7F
$GPGSV,3,3,10,06,18,218,33,07,15,050,*7A
$GPRMC,094726.000,A,4822.1400,N,01430.7774,E,2.71,298.22,231106,,,A*6C
$GPGGA,094727.000,4822.1399,N,01430.7769,E,1,04,2.5,230.0,M,45.2,M,,0000*55
$GPGSA,A,3,24,09,05,02,,,,,,,,,2.7,2.5,1.0*39
$GPRMC,094727.000,A,4822.1399,N,01430.7769,E,2.69,281.49,231106,,,A*6A
$GPGGA,094728.000,4822.1398,N,01430.7764,E,1,04,2.5,229.6,M,45.2,M,,0000*58
$GPGSA,A,3,24,09,05,02,,,,,,,,,2.7,2.5,1.0*39
$GPRMC,094728.000,A,4822.1398,N,01430.7764,E,3.15,296.45,231106,,,A*69
$GPGGA,094729.000,4822.1399,N,01430.7756,E,1,04,2.5,229.4,M,45.2,M,,0000*5B
$GPGSA,A,3,24,09,05,02,,,,,,,,,2.7,2.5,1.0*39
$GPRMC,094729.000,A,4822.1399,N,01430.7756,E,1.62,324.41,231106,,,A*66
$GPGGA,094730.000,4822.1399,N,01430.7747,E,1,04,2.5,228.9,M,45.2,M,,0000*5F
$GPGSA,A,3,24,09,05,02,,,,,,,,,2.7,2.5,1.0*39
$GPRMC,094730.000,A,4822.1399,N,01430.7747,E,1.79,348.26,231106,,,A*6F
$GPGGA,094731.000,4822.1401,N,01430.7735,E,1,04,2.5,228.8,M,45.2,M,,0000*5C
$GPGSA,A,3,24,09,05,02,,,,,,,,,2.7,2.5,1.0*39
$GPGSV,3,1,10,05,80,042,23,30,61,284,24,09,38,146,34,02,31,106,27*78
$GPGSV,3,2,10,24,29,097,25,14,27,306,,04,25,062,21,01,19,319,*7E
$GPGSV,3,3,10,06,18,218,31,07,15,050,*78
$GPRMC,094731.000,A,4822.1401,N,01430.7735,E,0.00,,231106,,,A*77
$GPGGA,094732.000,4822.1401,N,01430.7735,E,1,04,2.5,228.8,M,45.2,M,,0000*5F
$GPGSA,A,3,24,09,05,02,,,,,,,,,2.7,2.5,1.0*39
$GPRMC,094732.000,A,4822.1401,N,01430.7735,E,0.00,,231106,,,A*74
$GPGGA,094733.000,4822.1401,N,01430.7735,E,1,04,2.5,228.8,M,45.2,M,,0000*5E
$GPGSA,A,3,24,09,05,02,,,,,,,,,2.7,2.5,1.0*39
$GPRMC,094733.000,A,4822.1401,N,01430.7735,E,0.00,,231106,,,A*75
$GPGGA,094734.000,4822.1401,N,01430.7735,E,1,04,2.5,228.8,M,45.2,M,,0000*59
$GPGSA,A,3,24,09,05,02,,,,,,,,,2.7,2.5,1.0*39
$GPRMC,094734.000,A,4822.1401,N,01430.7735,E,0.00,,231106,,,A*72
$GPGGA,094735.000,4822.1401,N,01430.7735,E,1,04,2.5,228.8,M,45.2,M,,0000*58
$GPGSA,A,3,24,09,05,02,,,,,,,,,2.7,2.5,1.0*39
$GPRMC,094735.000,A,4822.1401,N,01430.7735,E,0.00,,231106,,,A*73
$GPGGA,094736.000,4822.1401,N,01430.7735,E,1,03,2.7,228.8,M,45.2,M,,0000*5E
$GPGSA,A,2,24,09,05,,,,,,,,,,2.9,2.7,1.0*36
$GPGSV,3,1,10,05,80,042,26,30,61,284,24,09,38,146,34,02,31,106,29*73
$GPGSV,3,2,10,24,29,097,26,14,27,306,,04,25,062,22,01,19,319,*7E
$GPGSV,3,3,10,06,18,218,28,07,15,050,*70
$GPRMC,094736.000,A,4822.1401,N,01430.7735,E,0.00,,231106,,,A*70
$GPGGA,094737.000,4822.1410,N,01430.7646,E,1,04,2.5,226.7,M,45.2,M,,0000*5E
$GPGSA,A,3,24,09,05,02,,,,,,,,,2.7,2.5,1.0*39
$GPRMC,094737.000,A,4822.1410,N,01430.7646,E,3.16,277.93,231106,,,A*66
$GPGGA,094738.000,4822.1412,N,01430.7639,E,1,04,2.5,226.6,M,45.2,M,,0000*5A
$GPGSA,A,3,24,09,05,02,,,,,,,,,2.7,2.5,1.0*39
$GPRMC,094738.000,A,4822.1412,N,01430.7639,E,1.20,309.53,231106,,,A*60
$GPGGA,094739.000,4822.1411,N,01430.7622,E,1,04,2.5,226.1,M,45.2,M,,0000*55
$GPGSA,A,3,24,09,05,02,,,,,,,,,2.7,2.5,1.0*39
$GPRMC,094739.000,A,4822.1411,N,01430.7622,E,2.77,266.15,231106,,,A*63
$GPGGA,094740.000,4822.1410,N,01430.7604,E,1,04,2.5,225.6,M,45.2,M,,0000*5A
$GPGSA,A,3,24,09,05,02,,,,,,,,,2.7,2.5,1.0*39
$GPRMC,094740.000,A,4822.1410,N,01430.7604,E,2.64,262.37,231106,,,A*6E
$GPGGA,094741.000,4822.1409,N,01430.7586,E,1,04,2.5,224.9,M,45.2,M,,0000*54
$GPGSA,A,3,24,09,05,02,,,,,,,,,2.7,2.5,1.0*39
$GPGSV,3,1,10,05,80,042,24,30,61,284,26,09,38,146,34,02,31,106,27*7D
$GPGSV,3,2,10,24,29,097,28,14,27,306,,04,25,062,22,01,19,319,*70
$GPGSV,3,3,10,06,18,218,27,07,15,050,*7F
$GPRMC,094741.000,A,4822.1409,N,01430.7586,E,2.98,260.32,231106,,,A*6A
$GPGGA,094742.000,4822.1413,N,01430.7572,E,1,04,2.5,224.3,M,45.2,M,,0000*5D
$GPGSA,A,3,24,09,05,02,,,,,,,,,2.7,2.5,1.0*39
$GPRMC,094742.000,A,4822.1413,N,01430.7572,E,3.42,281.06,231106,,,A*67
$GPGGA,094743.000,4822.1413,N,01430.7559,E,1,04,2.5,224.3,M,45.2,M,,0000*55
$GPGSA,A,3,24,09,05,02,,,,,,,,,2.7,2.5,1.0*39
$GPRMC,094743.000,A,4822.1413,N,01430.7559,E,3.01,289.50,231106,,,A*63
$GPGGA,094744.000,4822.1416,N,01430.7548,E,1,04,2.5,224.0,M,45.2,M,,0000*54
$GPGSA,A,3,24,09,05,02,,,,,,,,,2.7,2.5,1.0*39
$GPRMC,094744.000,A,4822.1416,N,01430.7548,E,1.80,299.05,231106,,,A*6B
$GPGGA,094745.000,4822.1414,N,01430.7532,E,1,04,2.5,223.8,M,45.2,M,,0000*55
$GPGSA,A,3,24,09,05,02,,,,,,,,,2.7,2.5,1.0*39
$GPRMC,094745.000,A,4822.1414,N,01430.7532,E,2.19,260.52,231106,,,A*62
$GPGGA,094746.000,4822.1410,N,01430.7522,E,1,04,2.5,223.6,M,45.2,M,,0000*5D
$GPGSA,A,3,24,09,05,02,,,,,,,,,2.7,2.5,1.0*39
$GPGSV,3,1,10,05,80,042,25,30,61,284,26,09,38,146,32,02,31,106,32*7E
$GPGSV,3,2,10,24,29,097,31,14,27,306,,04,25,062,23,01,19,319,21*7A
$GPGSV,3,3,10,06,18,218,26,07,15,050,*7E
$GPRMC,094746.000,A,4822.1410,N,01430.7522,E,0.00,,231106,,,A*73
$GPGGA,094747.000,4822.1410,N,01430.7522,E,1,04,2.5,223.6,M,45.2,M,,0000*5C
$GPGSA,A,3,24,09,05,02,,,,,,,,,2.7,2.5,1.0*39
$GPRMC,094747.000,A,4822.1410,N,01430.7522,E,0.00,,231106,,,A*72
$GPGGA,094748.000,4822.1410,N,01430.7522,E,1,04,2.5,223.6,M,45.2,M,,0000*53
$GPGSA,A,3,24,09,05,02,,,,,,,,,2.7,2.5,1.0*39
$GPRMC,094748.000,A,4822.1410,N,01430.7522,E,0.00,,231106,,,A*7D
$GPGGA,094749.000,4822.1410,N,01430.7522,E,1,04,2.5,223.6,M,45.2,M,,0000*52
$GPGSA,A,3,24,09,05,02,,,,,,,,,2.7,2.5,1.0*39
$GPRMC,094749.000,A,4822.1410,N,01430.7522,E,0.00,,231106,,,A*7C
$GPGGA,094750.000,4822.1413,N,01430.7463,E,1,04,2.5,222.3,M,45.2,M,,0000*59
$GPGSA,A,3,24,09,05,02,,,,,,,,,2.7,2.5,1.0*39
$GPRMC,094750.000,A,4822.1413,N,01430.7463,E,2.77,275.61,231106,,,A*68
$GPGGA,094751.000,4822.1417,N,01430.7449,E,1,04,2.5,221.6,M,45.2,M,,0000*52
$GPGSA,A,3,24,09,05,02,,,,,,,,,2.7,2.5,1.0*39
$GPGSV,3,1,10,05,80,042,32,30,61,284,27,09,38,146,33,02,31,106,27*7C
$GPGSV,3,2,10,24,29,097,26,14,27,306,,04,25,062,23,01,19,319,23*7E
$GPGSV,3,3,10,06,18,218,29,07,15,050,*71
$GPRMC,094751.000,A,4822.1417,N,01430.7449,E,1.76,291.87,231106,,,A*65
$GPGGA,094752.000,4822.1418,N,01430.7433,E,1,04,2.5,221.3,M,45.2,M,,0000*56
$GPGSA,A,3,24,09,05,02,,,,,,,,,2.7,2.5,1.0*39
$GPRMC,094752.000,A,4822.1418,N,01430.7433,E,1.45,255.92,231106,,,A*68
$GPGGA,094753.000,4822.1416,N,01430.7413,E,1,04,2.5,221.1,M,45.2,M,,0000*59
$GPGSA,A,3,24,09,05,02,,,,,,,,,2.7,2.5,1.0*39
$GPRMC,094753.000,A,4822.1416,N,01430.7413,E,3.05,259.20,231106,,,A*66
$GPGGA,094754.000,4822.1415,N,01430.7395,E,1,04,2.5,220.7,M,45.2,M,,0000*53
$GPGSA,A,3,24,09,05,02,,,,,,,,,2.7,2.5,1.0*39
$GPRMC,094754.000,A,4822.1415,N,01430.7395,E,1.54,245.58,231106,,,A*6F
$GPGGA,094755.000,4822.1417,N,01430.7379,E,1,04,2.5,220.3,M,45.2,M,,0000*56
$GPGSA,A,3,24,09,05,02,,,,,,,,,2.7,2.5,1.0*39
$GPRMC,094755.000,A,4822.1417,N,01430.7379,E,2.09,235.98,231106,,,A*6E
$GPGGA,094756.000,4822.1417,N,01430.7370,E,1,04,2.5,220.2,M,45.2,M,,0000*5D
$GPGSA,A,3,24,09,05,02,,,,,,,,,2.7,2.5,1.0*39
$GPGSV,3,1,10,05,80,042,31,30,61,284,35,09,38,146,32,02,31,106,28*72
$GPGSV,3,2,10,24,29,097,26,14,27,306,,04,25,062,26,01,19,319,25*7D
$GPGSV,3,3,10,06,18,218,25,07,15,050,*7D
$GPRMC,094756.000,A,4822.1417,N,01430.7370,E,0.00,,231106,,,A*74
$GPGGA,094757.000,4822.1417,N,01430.7370,E,1,04,2.5,220.2,M,45.2,M,,0000*5C
$GPGSA,A,3,24,09,05,02,,,,,,,,,2.7,2.5,1.0*39
$GPRMC,094757.000,A,4822.1417,N,01430.7370,E,0.00,,231106,,,A*75
$GPGGA,094758.000,4822.1417,N,01430.7370,E,1,04,2.5,220.2,M,45.2,M,,0000*53
$GPGSA,A,3,24,09,05,02,,,,,,,,,2.7,2.5,1.0*39
$GPRMC,094758.000,A,4822.1417,N,01430.7370,E,0.00,,231106,,,A*7A
$GPGGA,094759.000,4822.1417,N,01430.7370,E,1,04,2.5,220.2,M,45.2,M,,0000*52
$GPGSA,A,3,24,09,05,02,,,,,,,,,2.7,2.5,1.0*39
$GPRMC,094759.000,A,4822.1417,N,01430.7370,E,0.00,,231106,,,A*7B
$GPGGA,094800.000,4822.1417,N,01430.7370,E,1,04,2.5,220.2,M,45.2,M,,0000*51
$GPGSA,A,3,24,09,05,02,,,,,,,,,2.7,2.5,1.0*39
$GPRMC,094800.000,A,4822.1417,N,01430.7370,E,0.00,,231106,,,A*78
$GPGGA,094801.000,4822.1417,N,01430.7370,E,1,04,2.5,220.2,M,45.2,M,,0000*50
$GPGSA,A,3,24,09,05,02,,,,,,,,,2.7,2.5,1.0*39
$GPGSV,3,1,10,05,80,042,31,30,61,284,26,09,38,146,32,02,31,106,29*71
$GPGSV,3,2,10,24,29,097,29,14,27,306,,04,25,062,24,01,19,319,30*74
$GPGSV,3,3,10,06,18,218,21,07,15,050,*79
$GPRMC,094801.000,A,4822.1417,N,01430.7370,E,0.00,,231106,,,A*79
$GPGGA,094802.000,4822.1417,N,01430.7370,E,1,04,2.5,220.2,M,45.2,M,,0000*53
$GPGSA,A,3,24,09,05,02,,,,,,,,,2.7,2.5,1.0*39
$GPRMC,094802.000,A,4822.1417,N,01430.7370,E,0.00,,231106,,,A*7A
$GPGGA,094803.000,4822.1417,N,01430.7370,E,1,04,2.5,220.2,M,45.2,M,,0000*52
$GPGSA,A,3,24,09,05,02,,,,,,,,,2.7,2.5,1.0*39
$GPRMC,094803.000,A,4822.1417,N,01430.7370,E,0.00,,231106,,,A*7B
$GPGGA,094804.000,4822.1417,N,01430.7370,E,1,04,2.5,220.2,M,45.2,M,,0000*55
$GPGSA,A,3,24,09,05,02,,,,,,,,,2.7,2.5,1.0*39
$GPRMC,094804.000,A,4822.1417,N,01430.7370,E,0.00,,231106,,,A*7C
$GPGGA,094805.000,4822.1417,N,01430.7370,E,1,04,2.5,220.2,M,45.2,M,,0000*54
$GPGSA,A,3,24,09,05,02,,,,,,,,,2.7,2.5,1.0*39
$GPRMC,094805.000,A,4822.1417,N,01430.7370,E,0.00,,231106,,,A*7D
$GPGGA,094806.000,4822.1417,N,01430.7370,E,1,04,2.5,220.2,M,45.2,M,,0000*57
$GPGSA,A,3,24,09,05,02,,,,,,,,,2.7,2.5,1.0*39
$GPGSV,3,1,10,05,80,042,27,30,61,284,38,09,38,146,26,02,31,106,29*7C
$GPGSV,3,2,10,24,29,097,29,14,27,306,,04,25,062,25,01,19,319,25*71
$GPGSV,3,3,10,06,18,218,22,07,15,050,*7A
$GPRMC,094806.000,A,4822.1417,N,01430.7370,E,0.00,,231106,,,A*7E
$GPGGA,094807.000,4822.1417,N,01430.7370,E,1,04,2.5,220.2,M,45.2,M,,0000*56
$GPGSA,A,3,24,09,05,02,,,,,,,,,2.7,2.5,1.0*39
$GPRMC,094807.000,A,4822.1417,N,01430.7370,E,0.00,,231106,,,A*7F
$GPGGA,094808.000,4822.1417,N,01430.7370,E,1,04,2.5,220.2,M,45.2,M,,0000*59
$GPGSA,A,3,24,09,05,02,,,,,,,,,2.7,2.5,1.0*39
$GPRMC,094808.000,A,4822.1417,N,01430.7370,E,0.00,,231106,,,A*70
$GPGGA,094809.000,4822.1417,N,01430.7370,E,1,04,2.5,220.2,M,45.2,M,,0000*58
$GPGSA,A,3,24,09,05,02,,,,,,,,,2.7,2.5,1.0*39
$GPRMC,094809.000,A,4822.1417,N,01430.7370,E,0.00,,231106,,,A*71
$GPGGA,094810.000,4822.1417,N,01430.7370,E,1,04,2.5,220.2,M,45.2,M,,0000*50
$GPGSA,A,3,24,09,05,02,,,,,,,,,2.7,2.5,1.0*39
$GPRMC,094810.000,A,4822.1417,N,01430.7370,E,0.00,,231106,,,A*79
$GPGGA,094811.000,4822.1417,N,01430.7370,E,1,04,2.5,220.2,M,45.2,M,,0000*51
$GPGSA,A,3,24,09,05,02,,,,,,,,,2.7,2.5,1.0*39
$GPGSV,3,1,10,05,80,042,28,30,61,284,35,09,38,146,27,02,31,106,27*71
$GPGSV,3,2,10,24,29,097,28,14,27,306,,04,25,062,32,01,19,319,29*7A
$GPGSV,3,3,10,06,18,218,23,07,15,050,*7B
$GPRMC,094811.000,A,4822.1417,N,01430.7370,E,0.00,,231106,,,A*78
$GPGGA,094812.000,4822.1417,N,01430.7370,E,1,04,2.5,220.2,M,45.2,M,,0000*52
$GPGSA,A,3,24,09,05,02,,,,,,,,,2.7,2.5,1.0*39
$GPRMC,094812.000,A,4822.1417,N,01430.7370,E,0.00,,231106,,,A*7B
$GPGGA,094813.000,4822.1417,N,01430.7370,E,1,04,2.5,220.2,M,45.2,M,,0000*53
$GPGSA,A,3,24,09,05,02,,,,,,,,,2.7,2.5,1.0*39
$GPRMC,094813.000,A,4822.1417,N,01430.7370,E,0.00,,231106,,,A*7A
$GPGGA,094814.000,4822.1417,N,01430.7370,E,1,04,2.5,220.2,M,45.2,M,,0000*54
$GPGSA,A,3,24,09,05,02,,,,,,,,,2.7,2.5,1.0*39
$GPRMC,094814.000,A,4822.1417,N,01430.7370,E,0.00,,231106,,,A*7D
$GPGGA,094815.000,4822.1417,N,01430.7370,E,1,04,2.5,220.2,M,45.2,M,,0000*55
$GPGSA,A,3,24,09,05,02,,,,,,,,,2.7,2.5,1.0*39
$GPRMC,094815.000,A,4822.1417,N,01430.7370,E,0.00,,231106,,,A*7C
$GPGGA,094816.000,4822.1417,N,01430.7370,E,1,04,2.5,220.2,M,45.2,M,,0000*56
$GPGSA,A,3,24,09,05,02,,,,,,,,,2.7,2.5,1.0*39
$GPGSV,3,1,10,05,80,042,28,30,61,284,36,09,38,146,24,02,31,106,28*7E
$GPGSV,3,2,10,24,29,097,29,14,27,306,,04,25,062,29,01,19,319,24*7C
$GPGSV,3,3,10,06,18,218,26,07,15,050,*7E
$GPRMC,094816.000,A,4822.1417,N,01430.7370,E,0.00,,231106,,,A*7F
$GPGGA,094817.000,4822.1417,N,01430.7370,E,1,04,2.5,220.2,M,45.2,M,,0000*57
$GPGSA,A,3,24,09,05,02,,,,,,,,,2.7,2.5,1.0*39
$GPRMC,094817.000,A,4822.1417,N,01430.7370,E,0.00,,231106,,,A*7E
$GPGGA,094818.000,4822.1417,N,01430.7370,E,1,04,2.5,220.2,M,45.2,M,,0000*58
$GPGSA,A,3,24,09,05,02,,,,,,,,,2.7,2.5,1.0*39
$GPRMC,094818.000,A,4822.1417,N,01430.7370,E,0.00,,231106,,,A*71
$GPGGA,094819.000,4822.1417,N,01430.7370,E,1,04,2.5,220.2,M,45.2,M,,0000*59
$GPGSA,A,3,24,09,05,02,,,,,,,,,2.7,2.5,1.0*39
$GPRMC,094819.000,A,4822.1417,N,01430.7370,E,0.00,,231106,,,A*70
$GPGGA,094820.000,4822.1417,N,01430.7370,E,1,04,2.5,220.2,M,45.2,M,,0000*53
$GPGSA,A,3,24,09,05,02,,,,,,,,,2.7,2.5,1.0*39
$GPRMC,094820.000,A,4822.1417,N,01430.7370,E,0.00,,231106,,,A*7A
$GPGGA,094821.000,4822.1417,N,01430.7370,E,1,04,2.5,220.2,M,45.2,M,,0000*52
$GPGSA,A,3,24,09,05,02,,,,,,,,,2.7,2.5,1.0*39
$GPGSV,3,1,10,05,80,042,29,30,61,284,35,09,38,146,24,02,31,106,29*7D
$GPGSV,3,2,10,24,29,097,28,14,27,306,,04,25,062,25,01,19,319,24*71
$GPGSV,3,3,10,06,18,218,28,07,15,050,*70
$GPRMC,094821.000,A,4822.1417,N,01430.7370,E,0.00,,231106,,,A*7B
$GPGGA,094822.000,4822.1417,N,01430.7370,E,1,04,2.5,220.2,M,45.2,M,,0000*51
$GPGSA,A,3,24,09,05,02,,,,,,,,,2.7,2.5,1.0*39
$GPRMC,094822.000,A,4822.1417,N,01430.7370,E,0.00,,231106,,,A*78
$GPGGA,094823.000,4822.1417,N,01430.7370,E,1,04,2.5,220.2,M,45.2,M,,0000*50
$GPGSA,A,3,24,09,05,02,,,,,,,,,2.7,2.5,1.0*39
$GPRMC,094823.000,A,4822.1417,N,01430.7370,E,0.00,,231106,,,A*79
$GPGGA,094824.000,4822.1417,N,01430.7370,E,1,04,2.5,220.2,M,45.2,M,,0000*57
$GPGSA,A,3,24,09,05,02,,,,,,,,,2.7,2.5,1.0*39
$GPRMC,094824.000,A,4822.1417,N,01430.7370,E,0.00,,231106,,,A*7E
$GPGGA,094825.000,4822.1417,N,01430.7370,E,1,04,2.5,220.2,M,45.2,M,,0000*56
$GPGSA,A,3,24,09,05,02,,,,,,,,,2.7,2.5,1.0*39
$GPRMC,094825.000,A,4822.1417,N,01430.7370,E,0.00,,231106,,,A*7F
$GPGGA,094826.000,4822.1417,N,01430.7370,E,1,04,2.5,220.2,M,45.2,M,,0000*55
$GPGSA,A,3,24,09,05,02,,,,,,,,,2.7,2.5,1.0*39
$GPGSV,3,1,10,05,80,042,27,30,61,284,35,09,38,146,28,02,31,106,29*7F
$GPGSV,3,2,10,24,29,097,28,14,27,306,,04,25,062,25,01,19,319,24*71
$GPGSV,3,3,10,06,18,218,29,07,15,050,*71
$GPRMC,094826.000,A,4822.1417,N,01430.7370,E,0.00,,231106,,,A*7C
$GPGGA,094827.000,4822.1417,N,01430.7370,E,1,04,2.5,220.2,M,45.2,M,,0000*54
$GPGSA,A,3,24,09,05,02,,,,,,,,,2.7,2.5,1.0*39
$GPRMC,094827.000,A,4822.1417,N,01430.7370,E,0.00,,231106,,,A*7D
$GPGGA,094828.000,4822.1417,N,01430.7370,E,1,04,2.5,220.2,M,45.2,M,,0000*5B
$GPGSA,A,3,24,09,05,02,,,,,,,,,2.7,2.5,1.0*39
$GPRMC,094828.000,A,4822.1417,N,01430.7370,E,0.00,,231106,,,A*72
$GPGGA,094829.000,4822.1472,N,01430.7108,E,1,04,2.5,219.6,M,45.2,M,,0000*5A
$GPGSA,A,3,24,09,05,02,,,,,,,,,2.7,2.5,1.0*39
$GPRMC,094829.000,A,4822.1472,N,01430.7108,E,3.01,276.72,231106,,,A*67
$GPGGA,094830.000,4822.1467,N,01430.7085,E,1,04,2.5,219.5,M,45.2,M,,0000*51
$GPGSA,A,3,24,09,05,02,,,,,,,,,2.7,2.5,1.0*39
$GPRMC,094830.000,A,4822.1467,N,01430.7085,E,3.17,260.14,231106,,,A*6F
$GPGGA,094831.000,4822.1464,N,01430.7072,E,1,04,2.5,219.7,M,45.2,M,,0000*59
$GPGSA,A,3,24,09,05,02,,,,,,,,,2.7,2.5,1.0*39
$GPGSV,3,1,10,05,80,042,28,30,61,284,35,09,38,146,29,02,31,106,30*79
$GPGSV,3,2,10,24,29,097,27,14,27,306,,04,25,062,26,01,19,319,25*7C
$GPGSV,3,3,10,06,18,218,29,07,15,050,*71
$GPRMC,094831.000,A,4822.1464,N,01430.7072,E,2.24,253.06,231106,,,A*67
$GPGGA,094832.000,4822.1462,N,01430.7055,E,1,04,2.5,219.7,M,45.2,M,,0000*59
$GPGSA,A,3,24,09,05,02,,,,,,,,,2.7,2.5,1.0*39
$GPRMC,094832.000,A,4822.1462,N,01430.7055,E,3.10,254.98,231106,,,A*61
$GPGGA,094833.000,4822.1460,N,01430.7048,E,1,04,2.5,219.6,M,45.2,M,,0000*57
$GPGSA,A,3,24,09,05,02,,,,,,,,,2.7,2.5,1.0*39
$GPRMC,094833.000,A,4822.1460,N,01430.7048,E,1.91,238.77,231106,,,A*6E
$GPGGA,094834.000,4822.1458,N,01430.7040,E,1,04,2.5,219.5,M,45.2,M,,0000*50
$GPGSA,A,3,24,09,05,02,,,,,,,,,2.7,2.5,1.0*39
$GPRMC,094834.000,A,4822.1458,N,01430.7040,E,2.57,225.15,231106,,,A*6B
$GPGGA,094835.000,4822.1455,N,01430.7032,E,1,04,2.5,219.3,M,45.2,M,,0000*5F
$GPGSA,A,3,24,09,05,02,,,,,,,,,2.7,2.5,1.0*39
$GPRMC,094835.000,A,4822.1455,N,01430.7032,E,2.88,252.78,231106,,,A*6B
$GPGGA,094836.000,4822.1451,N,01430.7013,E,1,04,2.5,219.0,M,45.2,M,,0000*58
$GPGSA,A,3,24,09,05,02,,,,,,,,,2.7,2.5,1.0*39
$GPGSV,3,1,10,05,80,042,28,30,61,284,33,09,38,146,29,02,31,106,30*7F
$GPGSV,3,2,10,24,29,097,25,14,27,306,,04,25,062,26,01,19,319,27*7C
$GPGSV,3,3,10,06,18,218,29,07,15,050,*71
$GPRMC,094836.000,A,4822.1451,N,01430.7013,E,5.22,245.61,231106,,,A*66
$GPGGA,094837.000,4822.1448,N,01430.6997,E,1,04,2.5,219.0,M,45.2,M,,0000*55
$GPGSA,A,3,24,09,05,02,,,,,,,,,2.7,2.5,1.0*39
$GPRMC,094837.000,A,4822.1448,N,01430.6997,E,3.96,257.84,231106,,,A*6A
$GPGGA,094838.000,4822.1449,N,01430.6983,E,1,04,2.5,218.9,M,45.2,M,,0000*56
$GPGSA,A,3,24,09,05,02,,,,,,,,,2.7,2.5,1.0*39
$GPRMC,094838.000,A,4822.1449,N,01430.6983,E,2.74,267.62,231106,,,A*67
$GPGGA,094839.000,4822.1450,N,01430.6971,E,1,04,2.5,218.9,M,45.2,M,,0000*52
$GPGSA,A,3,24,09,05,02,,,,,,,,,2.7,2.5,1.0*39
$GPRMC,094839.000,A,4822.1450,N,01430.6971,E,3.01,263.89,231106,,,A*61
$GPGGA,094840.000,4822.1450,N,01430.6962,E,1,04,2.5,218.9,M,45.2,M,,0000*5E
$GPGSA,A,3,24,09,05,02,,,,,,,,,2.7,2.5,1.0*39
$GPRMC,094840.000,A,4822.1450,N,01430.6962,E,0.54,284.12,231106,,,A*65
$GPGGA,094841.000,4822.1445,N,01430.6949,E,1,04,2.5,218.7,M,45.2,M,,0000*5C
$GPGSA,A,3,24,09,05,02,,,,,,,,,2.7,2.5,1.0*39
$GPGSV,3,1,10,05,80,042,28,30,61,284,34,09,38,146,28,02,31,106,30*79
$GPGSV,3,2,10,24,29,097,28,14,27,306,,04,25,062,25,01,19,319,29*7C
$GPGSV,3,3,10,06,18,218,31,07,15,050,*78
$GPRMC,094841.000,A,4822.1445,N,01430.6949,E,2.26,226.10,231106,,,A*64
$GPGGA,094842.000,4822.1442,N,01430.6933,E,1,04,2.5,218.7,M,45.2,M,,0000*55
$GPGSA,A,3,24,09,05,02,,,,,,,,,2.7,2.5,1.0*39
$GPRMC,094842.000,A,4822.1442,N,01430.6933,E,0.00,,231106,,,A*72
$GPGGA,094843.000,4822.1442,N,01430.6933,E,1,04,2.5,218.7,M,45.2,M,,0000*54
$GPGSA,A,3,24,09,05,02,,,,,,,,,2.7,2.5,1.0*39
$GPRMC,094843.000,A,4822.1442,N,01430.6933,E,0.00,,231106,,,A*73
$GPGGA,094844.000,4822.1442,N,01430.6933,E,1,04,2.5,218.7,M,45.2,M,,0000*53
$GPGSA,A,3,24,09,05,02,,,,,,,,,2.7,2.5,1.0*39
$GPRMC,094844.000,A,4822.1442,N,01430.6933,E,0.00,,231106,,,A*74
$GPGGA,094845.000,4822.1442,N,01430.6933,E,1,04,2.5,218.7,M,45.2,M,,0000*52
$GPGSA,A,3,24,09,05,02,,,,,,,,,2.7,2.5,1.0*39
$GPRMC,094845.000,A,4822.1442,N,01430.6933,E,0.00,,231106,,,A*75
$GPGGA,094846.000,4822.1456,N,01430.6898,E,1,04,2.5,219.3,M,45.2,M,,0000*51
$GPGSA,A,3,24,09,05,02,,,,,,,,,2.7,2.5,1.0*39
$GPGSV,3,1,10,05,80,042,33,30,61,284,33,09,38,146,30,02,31,106,37*7A
$GPGSV,3,2,10,24,29,097,28,14,27,306,,04,25,062,29,01,19,319,26*7F
$GPGSV,3,3,10,06,18,218,23,07,15,050,*7B
$GPRMC,094846.000,A,4822.1456,N,01430.6898,E,3.23,259.89,231106,,,A*60
$GPGGA,094847.000,4822.1458,N,01430.6890,E,1,04,2.5,219.6,M,45.2,M,,0000*53
$GPGSA,A,3,24,09,05,02,,,,,,,,,2.7,2.5,1.0*39
$GPRMC,094847.000,A,4822.1458,N,01430.6890,E,2.71,273.92,231106,,,A*63
$GPGGA,094848.000,4822.1456,N,01430.6876,E,1,04,2.5,219.8,M,45.2,M,,0000*54
$GPGSA,A,3,24,09,05,02,,,,,,,,,2.7,2.5,1.0*39
$GPRMC,094848.000,A,4822.1456,N,01430.6876,E,2.35,274.32,231106,,,A*67
$GPGGA,094849.000,4822.1453,N,01430.6866,E,1,04,2.5,220.1,M,45.2,M,,0000*52
$GPGSA,A,3,24,09,05,02,,,,,,,,,2.7,2.5,1.0*39
$GPRMC,094849.000,A,4822.1453,N,01430.6866,E,1.76,255.78,231106,,,A*6B
$GPGGA,094850.000,4822.1450,N,01430.6867,E,1,04,2.5,220.9,M,45.2,M,,0000*50
$GPGSA,A,3,24,09,05,02,,,,,,,,,2.7,2.5,1.0*39
$GPRMC,094850.000,A,4822.1450,N,01430.6867,E,0.00,,231106,,,A*72
$GPGGA,094851.000,4822.1450,N,01430.6867,E,1,04,2.5,220.9,M,45.2,M,,0000*51
$GPGSA,A,3,24,09,05,02,,,,,,,,,2.7,2.5,1.0*39
$GPGSV,3,1,10,05,79,048,30,30,63,285,36,09,36,146,27,02,32,105,34*78
$GPGSV,3,2,10,24,30,096,24,14,27,305,,04,25,061,28,01,20,318,22*74
$GPGSV,3,3,10,06,19,218,18,07,13,050,*74
$GPRMC,094851.000,A,4822.1450,N,01430.6867,E,0.00,,231106,,,A*73
$GPGGA,094852.000,4822.1450,N,01430.6867,E,1,04,2.5,220.9,M,45.2,M,,0000*52
$GPGSA,A,3,24,09,05,02,,,,,,,,,2.7,2.5,1.0*39
$GPRMC,094852.000,A,4822.1450,N,01430.6867,E,0.00,,231106,,,A*70
$GPGGA,094853.000,4822.1450,N,01430.6867,E,1,04,2.5,220.9,M,45.2,M,,0000*53
$GPGSA,A,3,24,09,05,02,,,,,,,,,2.7,2.5,1.0*39
$GPRMC,094853.000,A,4822.1450,N,01430.6867,E,0.00,,231106,,,A*71
$GPGGA,094854.000,4822.1450,N,01430.6867,E,1,04,2.5,220.9,M,45.2,M,,0000*54
$GPGSA,A,3,24,09,05,02,,,,,,,,,2.7,2.5,1.0*39
$GPRMC,094854.000,A,4822.1450,N,01430.6867,E,0.00,,231106,,,A*76
$GPGGA,094855.000,4822.1450,N,01430.6867,E,1,04,2.5,220.9,M,45.2,M,,0000*55
$GPGSA,A,3,24,09,05,02,,,,,,,,,2.7,2.5,1.0*39
$GPRMC,094855.000,A,4822.1450,N,01430.6867,E,0.00,,231106,,,A*77
$GPGGA,094856.000,4822.1457,N,01430.6834,E,1,04,2.5,224.0,M,45.2,M,,0000*5A
$GPGSA,A,3,24,09,05,02,,,,,,,,,2.7,2.5,1.0*39
$GPGSV,3,1,10,05,79,048,27,30,63,285,30,09,36,146,20,02,32,105,31*7A
$GPGSV,3,2,10,24,30,096,26,14,27,305,,04,25,061,25,01,20,318,21*78
$GPGSV,3,3,10,06,19,218,22,07,13,050,*7D
$GPRMC,094856.000,A,4822.1457,N,01430.6834,E,4.36,245.08,231106,,,A*61
$GPGGA,094857.000,4822.1456,N,01430.6824,E,1,04,2.5,224.0,M,45.2,M,,0000*5B
$GPGSA,A,3,24,09,05,02,,,,,,,,,2.7,2.5,1.0*39
$GPRMC,094857.000,A,4822.1456,N,01430.6824,E,4.65,227.80,231106,,,A*62
$GPGGA,094858.000,4822.1456,N,01430.6822,E,1,04,2.5,223.9,M,45.2,M,,0000*5C
$GPGSA,A,3,24,09,05,02,,,,,,,,,2.7,2.5,1.0*39
$GPRMC,094858.000,A,4822.1456,N,01430.6822,E,3.04,216.77,231106,,,A*61
$GPGGA,094859.000,4822.1460,N,01430.6821,E,1,04,2.5,224.3,M,45.2,M,,0000*56
$GPGSA,A,3,24,09,05,02,,,,,,,,,2.7,2.5,1.0*39
$GPRMC,094859.000,A,4822.1460,N,01430.6821,E,1.76,271.07,231106,,,A*67
$GPGGA,094900.000,4822.1462,N,01430.6826,E,1,04,2.5,224.9,M,45.2,M,,0000*54
$GPGSA,A,3,24,09,05,02,,,,,,,,,2.7,2.5,1.0*39
$GPRMC,094900.000,A,4822.1462,N,01430.6826,E,0.24,304.49,231106,,,A*60
$GPGGA,094901.000,4822.1471,N,01430.6834,E,1,04,2.5,225.1,M,45.2,M,,0000*5D
$GPGSA,A,3,24,09,05,02,,,,,,,,,2.7,2.5,1.0*39
$GPGSV,3,1,10,05,79,048,27,30,63,285,31,09,36,146,20,02,32,105,23*78
$GPGSV,3,2,10,24,30,096,35,14,27,305,,04,25,061,31,01,20,318,21*7F
$GPGSV,3,3,10,06,19,218,27,07,13,050,*78
$GPRMC,094901.000,A,4822.1471,N,01430.6834,E,0.00,,231106,,,A*72
$GPGGA,094902.000,4822.1471,N,01430.6834,E,1,04,2.5,225.1,M,45.2,M,,0000*5E
$GPGSA,A,3,24,09,05,02,,,,,,,,,2.7,2.5,1.0*39
$GPRMC,094902.000,A,4822.1471,N,01430.6834,E,0.00,,231106,,,A*71
$GPGGA,094903.000,4822.1471,N,01430.6834,E,1,04,2.5,225.1,M,45.2,M,,0000*5F
$GPGSA,A,3,24,09,05,02,,,,,,,,,2.7,2.5,1.0*39
$GPRMC,094903.000,A,4822.1471,N,01430.6834,E,0.00,,231106,,,A*70
$GPGGA,094904.000,4822.1471,N,01430.6834,E,1,04,2.5,225.1,M,45.2,M,,0000*58
$GPGSA,A,3,24,09,05,02,,,,,,,,,2.7,2.5,1.0*39
$GPRMC,094904.000,A,4822.1471,N,01430.6834,E,0.00,,231106,,,A*77
$GPGGA,094905.000,4822.1471,N,01430.6834,E,1,04,2.5,225.1,M,45.2,M,,0000*59
$GPGSA,A,3,24,09,05,02,,,,,,,,,2.7,2.5,1.0*39
$GPRMC,094905.000,A,4822.1471,N,01430.6834,E,0.00,,231106,,,A*76
$GPGGA,094906.000,4822.1471,N,01430.6834,E,1,04,2.5,225.1,M,45.2,M,,0000*5A
$GPGSA,A,3,24,09,05,02,,,,,,,,,2.7,2.5,1.0*39
$GPGSV,3,1,10,05,79,048,28,30,63,285,35,09,36,146,20,02,32,105,21*71
$GPGSV,3,2,10,24,30,096,21,14,27,305,,04,25,061,23,01,20,318,21*79
$GPGSV,3,3,10,06,19,218,18,07,13,050,*74
$GPRMC,094906.000,A,4822.1471,N,01430.6834,E,0.00,,231106,,,A*75
$GPGGA,094907.000,4822.1496,N,01430.6772,E,1,04,2.5,225.8,M,45.2,M,,0000*56
$GPGSA,A,3,24,09,05,02,,,,,,,,,2.7,2.5,1.0*39
$GPRMC,094907.000,A,4822.1496,N,01430.6772,E,2.78,225.41,231106,,,A*63
$GPGGA,094908.000,4822.1499,N,01430.6762,E,1,04,2.5,226.0,M,45.2,M,,0000*5C
$GPGSA,A,3,24,09,05,02,,,,,,,,,2.7,2.5,1.0*39
$GPRMC,094908.000,A,4822.1499,N,01430.6762,E,1.10,188.33,231106,,,A*6E
$GPGGA,094909.000,4822.1512,N,01430.6746,E,1,04,2.5,226.6,M,45.2,M,,0000*5F
$GPGSA,A,3,24,09,05,02,,,,,,,,,2.7,2.5,1.0*39
$GPRMC,094909.000,A,4822.1512,N,01430.6746,E,0.54,5.78,231106,,,A*61
$GPGGA,094910.000,4822.1525,N,01430.6731,E,1,04,2.5,226.7,M,45.2,M,,0000*52
$GPGSA,A,3,24,09,05,02,,,,,,,,,2.7,2.5,1.0*39
$GPRMC,094910.000,A,4822.1525,N,01430.6731,E,0.00,,231106,,,A*78
$GPGGA,094911.000,4822.1525,N,01430.6731,E,1,04,2.5,226.7,M,45.2,M,,0000*53
$GPGSA,A,3,24,09,05,02,,,,,,,,,2.7,2.5,1.0*39
$GPGSV,3,1,10,05,79,048,30,30,63,285,31,09,36,146,20,02,32,105,18*76
$GPGSV,3,2,10,24,30,096,20,14,27,305,,04,25,061,25,01,20,318,28*77
$GPGSV,3,3,10,06,19,218,19,07,13,050,*75
$GPRMC,094911.000,A,4822.1525,N,01430.6731,E,0.00,,231106,,,A*79
$GPGGA,094912.000,4822.1525,N,01430.6731,E,1,03,2.7,226.7,M,45.2,M,,0000*55
$GPGSA,A,2,24,09,05,,,,,,,,,,2.9,2.7,1.0*36
$GPRMC,094912.000,A,4822.1525,N,01430.6731,E,0.00,,231106,,,A*7A
$GPGGA,094913.000,4822.1525,N,01430.6731,E,1,03,2.7,226.7,M,45.2,M,,0000*54
$GPGSA,A,2,24,09,05,,,,,,,,,,2.9,2.7,1.0*36
$GPRMC,094913.000,A,4822.1525,N,01430.6731,E,0.00,,231106,,,A*7B
$GPGGA,094914.000,4822.1525,N,01430.6731,E,1,03,2.7,226.7,M,45.2,M,,0000*53
$GPGSA,A,2,24,09,05,,,,,,,,,,2.9,2.7,1.0*36
$GPRMC,094914.000,A,4822.1525,N,01430.6731,E,0.00,,231106,,,A*7C
$GPGGA,094915.000,4822.1525,N,01430.6731,E,6,00,50.0,226.7,M,45.2,M,,0000*66
$GPGSA,A,2,,,,,,,,,,,,,50.0,50.0,50.0*06
$GPRMC,094915.000,V,4822.1525,N,01430.6731,E,0.00,,231106,,,E*6E
$GPGGA,094916.000,4822.1525,N,01430.6731,E,6,00,50.0,226.7,M,45.2,M,,0000*65
$GPGSA,A,2,,,,,,,,,,,,,50.0,50.0,50.0*06
$GPGSV,3,1,10,05,79,048,24,30,63,285,37,09,36,146,26,02,32,105,*7A
$GPGSV,3,2,10,24,30,096,19,14,27,305,,04,25,061,28,01,20,318,16*7D
$GPGSV,3,3,10,06,19,218,38,07,13,050,*76
$GPRMC,094916.000,V,4822.1525,N,01430.6731,E,0.00,,231106,,,E*6D
$GPGGA,094917.000,4822.1525,N,01430.6731,E,6,00,50.0,226.7,M,45.2,M,,0000*64
$GPGSA,A,2,,,,,,,,,,,,,50.0,50.0,50.0*06
$GPRMC,094917.000,V,4822.1525,N,01430.6731,E,0.00,,231106,,,E*6C
$GPGGA,094918.000,4822.1525,N,01430.6731,E,6,00,50.0,226.7,M,45.2,M,,0000*6B
$GPGSA,A,2,,,,,,,,,,,,,50.0,50.0,50.0*06
$GPRMC,094918.000,V,4822.1525,N,01430.6731,E,0.00,,231106,,,E*63
$GPGGA,094919.000,4822.1525,N,01430.6731,E,6,00,50.0,226.7,M,45.2,M,,0000*6A
$GPGSA,A,2,,,,,,,,,,,,,50.0,50.0,50.0*06
$GPRMC,094919.000,V,4822.1525,N,01430.6731,E,0.00,,231106,,,E*62
$GPGGA,094920.000,4822.1525,N,01430.6731,E,6,00,50.0,226.7,M,45.2,M,,0000*60
$GPGSA,A,2,,,,,,,,,,,,,50.0,50.0,50.0*06
$GPRMC,094920.000,V,4822.1525,N,01430.6731,E,0.00,,231106,,,E*68
$GPGGA,094921.000,4822.1525,N,01430.6731,E,6,00,50.0,226.7,M,45.2,M,,0000*61
$GPGSA,A,2,,,,,,,,,,,,,50.0,50.0,50.0*06
$GPGSV,3,1,10,05,79,048,19,30,63,285,32,09,36,146,,02,32,105,*75
$GPGSV,3,2,10,24,30,096,17,14,27,305,,04,25,061,,01,20,318,16*79
$GPGSV,3,3,10,06,19,218,34,07,13,050,*7A
$GPRMC,094921.000,V,4822.1525,N,01430.6731,E,0.00,,231106,,,E*69
$GPGGA,094922.000,4822.1525,N,01430.6731,E,6,00,50.0,226.7,M,45.2,M,,0000*62
$GPGSA,A,2,,,,,,,,,,,,,50.0,50.0,50.0*06
$GPRMC,094922.000,V,4822.1525,N,01430.6731,E,0.00,,231106,,,E*6A
$GPGGA,094923.000,4822.1525,N,01430.6731,E,6,00,50.0,226.7,M,45.2,M,,0000*63
$GPGSA,A,2,,,,,,,,,,,,,50.0,50.0,50.0*06
$GPRMC,094923.000,V,4822.1525,N,01430.6731,E,0.00,,231106,,,E*6B
